geonameid,name,asciiname,alternatenames,latitude,longitude,featureclass,featurecode,countrycode,cc2,admin1code,admin2code,admin3code,admin4code,population,elevation,dem,timezone,modificationdate,citta
2522808,Valderice,Valderice,"081022,Comune di Valderice,Paparella San Marco,Valderice,Valderici,Valdèrici",38.03333,12.61667,A,ADM3,IT,,15,TP,081022,,12113,,189,Europe/Rome,2020-06-07,Valderice
2523024,Spezzano della Sila,Spezzano della Sila,"078143,Comune di Spezzano della Sila,Spezzano Grande,Spezzano della Sila",39.30143,16.33976,A,ADM3,IT,,03,CS,078143,,4497,,797,Europe/Rome,2020-06-07,Spezzano della Sila
2523071,Siurgus Donigala,Siurgus Donigala,"111086,Comune di Siurgus Donigala,Donigala-Siurgus,S'jurgus-Donigala,Seurgus,Seurgus Donigala,Siurgus,Siurgus Donigala,Siurgus-Donigala,Sriugus Donigalla,xiu er gu si duo ni jia la,Сиургус Донигала,Сиургус-Донигала,Сьюргус-Донігала,Սիուրգուս Դոնիգալա,シウルグス・ドニガーラ,休尔古斯多尼加拉",39.58333,9.2,A,ADM3,IT,,14,SU,111086,,1955,,471,Europe/Rome,2020-06-07,Siurgus Donigala
2523095,Simeri Crichi,Simeri Crichi,"079133,Comune di Simeri Crichi,Semiris,Simeri Crichi,Simeri Crichi vald,Simeri Kriki,Simeri e Crichi,Simeri-Crichi,Simeri-Kriki,Simmari,Sìmmari,xi mei li ke li ji,Симери Крики,Симери-Крики,Сімері-Крикі,シーメリ・クリーキ,西梅里克里基",38.9538,16.64,A,ADM3,IT,,03,CZ,079133,,4718,,446,Europe/Rome,2020-06-07,Simeri Crichi
2523188,Scigliano,Scigliano,"078139,Comune di Scigliano,Scigliano",39.12786,16.30543,A,ADM3,IT,,03,CS,078139,,1211,,651,Europe/Rome,2020-06-07,Scigliano
2523457,San Giovanni Suergiu,San Giovanni Suergiu,"111063,Comune di San Giovanni Suergiu,Palmas Suergiu,Pálmas Suérgiu,San Giovanni Suergiu",39.1,8.53333,A,ADM3,IT,,14,SU,111063,,6002,,11,Europe/Rome,2020-06-07,San Giovanni Suergiu
2523532,Samo,Samo,"080070,Comune di Samo,Garaffa del Bianco,Sama,Samio,Samo,Samo di Calabria,Samus,sa mo,samo,samw,Сама,Само,Սամո,سامو,サーモ,萨莫",38.07377,16.05703,A,ADM3,IT,,03,RC,080070,,777,,299,Europe/Rome,2020-06-07,Samo
2523941,Pace del Mela,Pace del Mela,"083064,Comune di Pace del Mela,Pace del Mela",38.18863,15.30592,A,ADM3,IT,,15,ME,083064,,6242,,93,Europe/Rome,2020-06-07,Pace del Mela
2524162,Mezzojuso,Mezzojuso,"082047,Comune di Mezzojuso,Mezzojuso",37.86667,13.46667,A,ADM3,IT,,15,PA,082047,,2844,,521,Europe/Rome,2020-06-07,Mezzojuso
2524387,Limina,Limina,"083040,Comune di Limina,Limina",37.94075,15.27203,A,ADM3,IT,,15,ME,083040,,761,,577,Europe/Rome,2020-06-07,Limina
2524401,Letojanni,Letojanni,"083038,Comune di Letojanni,Letoianni,Letojanni",37.88333,15.3,A,ADM3,IT,,15,ME,083038,,2822,,88,Europe/Rome,2020-06-07,Letojanni
2524850,Dipignano,Dipignano,"078049,Comune di Dipignano,Depinianum,Dipignano,Dipignanu,Dipin'jano,Dipinano,Dipiniano,Dipinjano,Dzipinjana,di pi ni ya nuo,dipinyano,Дзіпіняна,Дипиньяно,Дипиняно,Дипињано,Діпіньяно,Դիպինիանո,ディピニャーノ,迪皮尼亚诺",39.23757,16.25161,A,ADM3,IT,,03,CS,078049,,4325,,721,Europe/Rome,2020-06-07,Dipignano
2525479,Cabras,Cabras,"095018,Cabras,Capra,Comune di Cabras,Crabas,Kabras,ka bu la si,kaburasu,Кабрас,Կաբրաս,カブラス,卡布拉斯",39.91667,8.53333,A,ADM3,IT,,14,OR,095018,,9152,,1,Europe/Rome,2020-06-07,Cabras
2525507,Brancaleone,Brancaleone,"080014,Brancaleone,Brancaleonum,Brancaleuni,Brankaleone,Comune di Brancaleone,bransalywny,bu lan ka lai ao nei,burankareone,Бранкалеоне,Բրանկալեոնե,برانساليوني,ブランカレオーネ,布兰卡莱奥内",37.96667,16.1,A,ADM3,IT,,03,RC,080014,,3542,,36,Europe/Rome,2020-06-07,Brancaleone
2525514,Bovalino,Bovalino,"080012,Bovalino,Comune di Bovalino",38.14981,16.17702,A,ADM3,IT,,03,RC,080012,,8943,,14,Europe/Rome,2020-06-07,Bovalino
2525695,Aprigliano,Aprigliano,"078012,Aprigliano,Apriglianu,April'jano,Aprilano,Apriliano,Aprilianum,Apriljano,Comune di Aprigliano,a pu li li ya nuo,apuririano,Априльяно,Априляно,Априљано,Ապրիլիանո,アプリリアーノ,阿普里利亚诺",39.24103,16.34105,A,ADM3,IT,,03,CS,078012,,2867,,756,Europe/Rome,2020-06-07,Aprigliano
3163847,Zoppè di Cadore,Zoppe di Cadore,"025069,Comune di Zoppe di Cadore,Comune di Zoppè di Cadore,Zoppe,Zoppe di Cadore,Zoppè di Cadore",46.38624,12.17255,A,ADM3,IT,,20,BL,025069,,212,,1442,Europe/Rome,2020-06-07,Zoppè di Cadore
3163884,Zeri,Zeri,"045017,Comune di Zeri,Zeri,zeri,ゼーリ",44.33333,9.76667,A,ADM3,IT,,16,MS,045017,,1014,,756,Europe/Rome,2020-06-07,Zeri
3164058,Vische,Vische,"001311,Comune di Vische,Visca,Vische,Viske,vuisuke,wei si kai,Виске,Віске,Վիսկե,ヴィスケ,维斯凯",45.33333,7.93333,A,ADM3,IT,,12,TO,001311,,1268,,229,Europe/Rome,2020-06-07,Vische
3164070,Vinovo,Vinovo,"001309,Comune di Vinovo,Vineuv,Vinovo,vuinovuo,ヴィノーヴォ",44.95,7.63333,A,ADM3,IT,,12,TO,001309,,15144,,235,Europe/Rome,2020-06-07,Vinovo
3164284,Villa Carcina,Villa Carcina,"017199,Comune di Villa Carcina,Villa Carcina,ヴィッラ・カルチーナ",45.63415,10.19222,A,ADM3,IT,,09,BS,017199,,10792,,248,Europe/Rome,2020-06-07,Villa Carcina
3164441,Viadana,Viadana,"020066,Comune di Viadana,Viadana,Viadàna,Videliana,Vjadana,vuiadana,wei ya da na,Виадана,Вядана,Վիադանա,ヴィアダーナ,维亚达纳",44.93333,10.53333,A,ADM3,IT,,09,MN,020066,,20154,,23,Europe/Rome,2020-06-07,Viadana
3164631,Velletri,Velletri,"058111,Comune di Velletri,Velletri",41.68333,12.78333,A,ADM3,IT,,07,RM,058111,,53250,,274,Europe/Rome,2020-06-07,Velletri
3164738,Vandoies/Vintl,Vandoies/Vintl,"021110,Comune di Vandoies,Vandoies,Vintl,vuandoiesu,ヴァンドーイエス",46.81633,11.72215,A,ADM3,IT,,17,BZ,021110,,3339,,759,Europe/Rome,2020-06-07,Vandoies/Vintl
3164755,Valsolda,Valsolda,"013234,Castello Valsolda,Comune di Valsolda,Valsolda",46.02486,9.05462,A,ADM3,IT,,09,CO,013234,,1530,,307,Europe/Rome,2020-06-07,Valsolda
3164759,Cevo,Cevo,"017051,Cevo,Comune di Cevo",46.08333,10.36667,A,ADM3,IT,,09,BS,017051,,857,,1111,Europe/Rome,2020-06-07,Cevo
3164776,Valmorea,Valmorea,"013232,Comune di Valmorea,Valmorea",45.81667,8.93333,A,ADM3,IT,,09,CO,013232,,2683,,412,Europe/Rome,2020-06-07,Valmorea
3164799,Vallio Terme,Vallio Terme,"017193,Comune di Vallio Terme,Vai,Valia-Tehrmeh,Valio Terme,Valles,Vallio Terme,Vallio-Terme,Vài,falyw trm,wa liao tai er mei,Валио Терме,Валлио-Терме,Валліо-Терме,Валіа-Тэрмэ,Վալիո Թերմե,فاليو ترم,ヴァッリオ・テルメ,瓦廖泰尔梅",45.61044,10.39264,A,ADM3,IT,,09,BS,017193,,1441,,299,Europe/Rome,2020-06-07,Vallio Terme
3164854,Valdidentro,Valdidentro,"014071,Comune di Valle di Dentro,Valdidentro,Valle di Dentro",46.48333,10.28333,A,ADM3,IT,,09,SO,014071,,4150,,1578,Europe/Rome,2020-06-07,Valdidentro
3164916,Valfabbrica,Valfabbrica,"054057,Comune di Valfabbrica,Valfabbrica",43.18333,12.66667,A,ADM3,IT,,18,PG,054057,,3361,,619,Europe/Rome,2020-06-07,Valfabbrica
3164932,Val di Vizze/Pfitsch,Val di Vizze/Pfitsch,"021107,Ad Fictas,Comune di Val di Vizze,Pfitsch,Val di Vice,Val di Vizze,Val'-di-Vicce,Val'-dzi-Vicceh,wa er di wei ze,Вал ди Вице,Валь-дзі-Віццэ,Валь-ди-Вицце,Валь-ді-Віцце,Վալ դի Վիցե,ヴァル・ディ・ヴィッツェ,瓦尔迪维泽",46.95,11.55,A,ADM3,IT,,17,BZ,021107,,3093,,1428,Europe/Rome,2020-06-07,Val di Vizze/Pfitsch
3165037,Urbe,Urbe,"009063,Comune di Urbe,LOrba,Owrbe,Urba,Urbe,urube,wu er bei,Урбе,Ուրբե,ウルベ,乌尔贝",44.48702,8.58745,A,ADM3,IT,,08,SV,009063,,707,,545,Europe/Rome,2020-06-07,Urbe
3165053,Ultimo/Ulten,Ultimo/Ulten,"021104,Comune di Ultimo,Uetimo,Ulten,Ultimo",46.51151,10.90741,A,ADM3,IT,,17,BZ,021104,,2896,,1825,Europe/Rome,2020-06-07,Ultimo/Ulten
3165186,Trieste,Trieste,"032006,Comune di Trieste,Gorad Tryest,Tergeste,Tergesti,Terst,Triest,Triestas,Trieste,Triesti,Triesto,Trieszt,Triëst,Trst,de li ya si te,teulieseute,toriesute,tri xe s te,tri'esta,tri'este,triyesrre,triyeste,trysth,tryysty,Τεργέστη,Горад Трыест,Триест,Трст,Трієст,טריאסטה,ترييستي,تریسته,ٹریسٹ,ट्रिएस्ट,त्रिएस्ते,ত্রিয়েস্তে,ട്രിയെസ്റ്റെ,ตรีเอสเต,ტრიესტი,トリエステ,的里雅斯特,트리에스테",45.66667,13.76667,A,ADM3,IT,,06,TS,032006,,204267,,48,Europe/Rome,2020-06-07,Trieste
3165499,Tornimparte,Tornimparte,"066101,Comune di Tornimparte,Tornimparte",42.28333,13.3,A,ADM3,IT,,01,AQ,066101,,3112,,911,Europe/Rome,2020-06-07,Tornimparte
3165525,Torino,Torino,"001272,Comune di Torino,Torino",45.05,7.66667,A,ADM3,IT,,12,TO,001272,,875698,,245,Europe/Rome,2020-06-07,Torino
3165891,Tavazzano con Villavesco,Tavazzano con Villavesco,"098056,Comune di Tavazzano con Villavesco,Tavazzano con Villavesco,Villavesco",45.33333,9.4,A,ADM3,IT,,09,LO,098056,,6034,,83,Europe/Rome,2020-06-07,Tavazzano con Villavesco
3166317,Sovico,Sovico,"108041,Comune di Sovico,Sovico,sovuiko,ソヴィーコ",45.65,9.26667,A,ADM3,IT,,09,MB,108041,,8346,,216,Europe/Rome,2020-06-07,Sovico
3166464,Socchieve,Socchieve,"030110,Comune di Socchieve,Sakeveh,Socchieve,Soclef,Soclêf,Sokieve,Sokk'eve,Sokkeve,Subclevum,sokkievue,suo ji ye wei,swkywh,Сакевэ,Сокиеве,Соккьеве,Соккєве,Սոքիևե,سوکیوه,ソッキエーヴェ,索基耶韦",46.40176,12.82834,A,ADM3,IT,,06,UD,030110,,898,,485,Europe/Rome,2020-06-07,Socchieve
3166565,Sgonico-Zgonik,Sgonico-Zgonik,"032005,Comune di Sgonico,Sgonico",45.73333,13.75,A,ADM3,IT,,06,TS,032005,,2068,,313,Europe/Rome,2020-06-07,Sgonico-Zgonik
3166751,Senales/Schnals,Senales/Schnals,"021091,Comune di Senales,Schnals,Schnals  Suedtirol,Schnals  Südtirol,Senales,Snales,sai na lai si,senaresu,Сеналес,Սենալես,セナーレス,塞纳莱斯",46.70603,10.90865,A,ADM3,IT,,17,BZ,021091,,1228,,1343,Europe/Rome,2020-06-07,Senales/Schnals
3167158,San Zenone degli Ezzelini,San Zenone degli Ezzelini,"026077,Comune di San Zenone degli Ezzelini,San Zenone,San Zenone degli Ezzelini",45.77908,11.83502,A,ADM3,IT,,20,TV,026077,,7392,,114,Europe/Rome,2020-06-07,San Zenone degli Ezzelini
3167205,San Vincenzo Valle Roveto,San Vincenzo Valle Roveto,"066092,Comune di San Vincenzo Valle Roveto,San Vincenzo Valle Roveto",41.81667,13.53333,A,ADM3,IT,,01,AQ,066092,,2266,,475,Europe/Rome,2020-06-07,San Vincenzo Valle Roveto
3168383,San Fior,San Fior,"026072,Comune di San Fior,San Fior",45.92059,12.35988,A,ADM3,IT,,20,TV,026072,,6975,,56,Europe/Rome,2020-06-07,San Fior
3168409,San Dorligo della Valle-Dolina,San Dorligo della Valle-Dolina,"032004,Comune di San Dorligo della Valle,Dolina,Fanum Sancti Hulderici Vallis,San Dorligo dela Vale,San Dorligo della Valle,San-Darliga-dehla-Vale,San-Dorligo-della-Valle,sheng duo er li ge de la wa lai,Сан Дорлиго дела Вале,Сан-Дарліга-дэла-Вале,Сан-Дорлиго-делла-Валле,Сан-Дорліго-делла-Валле,サン・ドルリーゴ・デッラ・ヴァッレ,圣多尔利戈德拉瓦莱",45.6,13.83333,A,ADM3,IT,,06,TS,032004,,5760,,25,Europe/Rome,2020-06-07,San Dorligo della Valle-Dolina
3168506,San Canzian d'Isonzo,San Canzian d'Isonzo,"031018,Comune di San Canzian d'Isonzo,Comune di San Canzian d’Isonzo,San Canzian,San Canzian d'Isonzo",45.79817,13.46761,A,ADM3,IT,,06,GO,031018,,6203,,2,Europe/Rome,2020-06-07,San Canzian d'Isonzo
3168593,Sambuca Pistoiese,Sambuca Pistoiese,"047018,Comune di Sambuca Pistoiese,Sambuca,Sambuca Pistoiese,Taviano",44.1,11,A,ADM3,IT,,16,PT,047018,,1568,,569,Europe/Rome,2020-06-07,Sambuca Pistoiese
3169071,Roma,Roma,"058091,Comune di Roma,Roma,Roma Capitale,Rome,Rzym,luo ma,羅馬",41.90036,12.49575,A,ADM3,IT,,07,RM,058091,,2856133,,66,Europe/Rome,2022-03-03,Roma
3169137,Rocca Santa Maria,Rocca Santa Maria,"067036,Comune di Rocca Santa Maria,Rocca Santa Maria",42.68333,13.5,A,ADM3,IT,,01,TE,067036,,504,,970,Europe/Rome,2020-06-07,Rocca Santa Maria
3169179,Roccafluvione,Roccafluvione,"044064,Comune di Roccafluvione,Rocca Fluvione,Rocca Seregnana,Rocca del Fluvione,Rocca di Fluvione,Roccafluvione,Rokafluvione,Rokafluvjoneh,Rokkafluv'one,luo ka fu lu wei ao nei,rokkafuruvuione,Рокафлувионе,Рокафлувёнэ,Роккафлувьоне,Ռոկաֆլուվիոնե,ロッカフルヴィオーネ,罗卡夫卢维奥内",42.85,13.48333,A,ADM3,IT,,10,AP,044064,,1967,,371,Europe/Rome,2020-06-07,Roccafluvione
3169413,Riese Pio X,Riese Pio X,"026068,Comune di Riese Pio X,Riese,Riese Pio X,リエーゼ・ピオ・デーチモ",45.73333,11.91667,A,ADM3,IT,,20,TV,026068,,11000,,66,Europe/Rome,2020-06-07,Riese Pio X
3169434,Ricaldone,Ricaldone,"006143,Comune di Ricaldone,Ricaldon,Ricaldone",44.73333,8.46667,A,ADM3,IT,,12,AL,006143,,647,,278,Europe/Rome,2020-06-07,Ricaldone
3169576,Rasun-Anterselva/Rasen-Antholz,Rasun-Anterselva/Rasen-Antholz,"021071,Comune di Rasun-Anterselva,Rasen Antholz,Rasen-Antholz,Rasun-Anterselva",46.83333,12.08333,A,ADM3,IT,,17,BZ,021071,,2917,,1198,Europe/Rome,2020-06-07,Rasun-Anterselva/Rasen-Antholz
3169822,Primaluna,Primaluna,"097070,Comune di Primaluna,Primaluna",45.9848,9.43588,A,ADM3,IT,,09,LC,097070,,2263,,567,Europe/Rome,2020-06-07,Primaluna
3169866,Prelà,Prela,"008047,Comune di Prela,Comune di Prelà,Prela,Prelà",43.92695,7.93556,A,ADM3,IT,,08,IM,008047,,475,,160,Europe/Rome,2020-06-07,Prelà
3169879,Predappio,Predappio,"040032,Comune di Predappio,Predappio,Predappio Nuova,puredappio,プレダッピオ",44.1,11.98333,A,ADM3,IT,,05,FC,040032,,6285,,133,Europe/Rome,2020-06-07,Predappio
3169953,Prali,Prali,"001202,Comune di Prali,Prali",44.9,7.05,A,ADM3,IT,,12,TO,001202,,239,,1482,Europe/Rome,2020-06-07,Prali
3169958,Pragelato,Pragelato,"001201,Commune de Pragelas,Comune di Pragelato,Pragelas,Pragelato",45.01336,6.93907,A,ADM3,IT,,12,TO,001201,,775,,1548,Europe/Rome,2020-06-07,Pragelato
3170081,Porto Mantovano,Porto Mantovano,"020045,Comune di Porto Mantovano,Porto Mantovano,ポルト・マントヴァーノ",45.1922,10.79287,A,ADM3,IT,,09,MN,020045,,16578,,31,Europe/Rome,2020-06-07,Porto Mantovano
3170113,Portico e San Benedetto,Portico e San Benedetto,"040031,Comune di Portico e San Benedetto,Portico,Portico San Benedetto,Portico e San Benedetto,Pórtico San Benedetto",44.01667,11.75,A,ADM3,IT,,05,FC,040031,,753,,503,Europe/Rome,2020-06-07,Portico e San Benedetto
3170292,Pontecagnano Faiano,Pontecagnano Faiano,"065099,Comune di Pontecagnano Faiano,Pontecagnano,Pontecagnano Faiano",40.62759,14.88782,A,ADM3,IT,,04,SA,065099,,26271,,24,Europe/Rome,2020-06-07,Pontecagnano Faiano
3170324,Ponna,Ponna,"013187,Comune di Ponna,Pona,Ponna,Pònna,peng na,pon'na,Пона,Понна,Պոննա,ポンナ,蓬纳",45.98936,9.09458,A,ADM3,IT,,09,CO,013187,,239,,883,Europe/Rome,2020-06-07,Ponna
3170368,Polpenazze del Garda,Polpenazze del Garda,"017145,Comune di Polpenazze del Garda,Polpenazze del Garda",45.55024,10.50293,A,ADM3,IT,,09,BS,017145,,2706,,212,Europe/Rome,2020-06-07,Polpenazze del Garda
3171153,Peschiera Borromeo,Peschiera Borromeo,"015171,Comune di Peschiera Borromeo,Peschiera Borromeo,ペスキエーラ・ボッロメーオ",45.43981,9.30619,A,ADM3,IT,,09,MI,015171,,23504,,105,Europe/Rome,2020-06-07,Peschiera Borromeo
3171669,Paisco Loveno,Paisco Loveno,"017131,Comune di Paisco Loveno,Paisco,Paisco Loveno",46.08333,10.28333,A,ADM3,IT,,09,BS,017131,,185,,1316,Europe/Rome,2020-06-07,Paisco Loveno
3171759,Ozzano dell'Emilia,Ozzano dell'Emilia,"037046,Comune di Ozzano dell'Emilia,Ozzano,Ozzano dell'Emilia,Ozzano dell’Emilia",44.44279,11.47136,A,ADM3,IT,,05,BO,037046,,13817,,64,Europe/Rome,2020-06-07,Ozzano dell'Emilia
3171813,Ossimo,Ossimo,"017128,Comune di Ossimo,Ossimo",45.9644,10.236,A,ADM3,IT,,09,BS,017128,,1444,,957,Europe/Rome,2020-06-07,Ossimo
3172047,Olivetta San Michele,Olivetta San Michele,"008038,Comune di Olivetta San Michele,Olivetta,Olivetta San Michele",43.8802,7.51611,A,ADM3,IT,,08,IM,008038,,207,,303,Europe/Rome,2020-06-07,Olivetta San Michele
3172066,Olgiate Molgora,Olgiate Molgora,"097058,Comune di Olgiate Molgora,Olgiate,Olgiate Calco,Olgiate Molgora",45.72805,9.40249,A,ADM3,IT,,09,LC,097058,,6509,,292,Europe/Rome,2020-06-07,Olgiate Molgora
3172174,Noventa Padovana,Noventa Padovana,"028058,Comune di Noventa Padovana,Noventa Padovana",45.41667,11.95,A,ADM3,IT,,20,PD,028058,,11477,,11,Europe/Rome,2020-06-07,Noventa Padovana
3172395,Napoli,Napoli,"063049,Comune di Napoli,Gorad Neapal',Na-put-let-su,Napels,Naples,Naplés,Napol,Napoles,Napoli,Napolo,Napols,Napoly,Nappoli,Napul,Napule,Napuli,Napulj,Napólí,Neapel,Neapelj,Neapol,Neapol',Neapole,Neapolis,Neapuoles,Neapuolės,Noapels,Nàpoli,Nàpols,Nàpuli,Nàpułi,Nápoles,Nápoli,Nápols,Nápoly,Nâ-put-le̍t-sṳ̂,na bu lei si,na po li,nabwly,napl,napoli,napolli,napori,napwly,nepalasa,nepalsa,nepeils,nyplz,Νάπολη,Горад Неапаль,Напуљ,Неапол,Неаполь,Նեապոլ,נאפאלי,נאפולי,نابولى,نابولي,ناپل,ناپولی,ناپۆلی,نیپلز,नापोलि,नापोली,नेपल्स,নেপলস,நாபொலி,เนเปิลส์,ნეაპოლი,ናፖሊ,ナポリ,拿坡利,那不勒斯,나폴리",40.83333,14.25,A,ADM3,IT,,04,NA,063049,,959188,,28,Europe/Rome,2020-06-07,Napoli
3172484,Muggia,Muggia,"032003,Comune di Muggia,Muggia",45.6,13.76667,A,ADM3,IT,,06,TS,032003,,13062,,7,Europe/Rome,2020-06-07,Muggia
3172492,Mozzo,Mozzo,"016143,Comune di Mozzo,Mocca,Mocco,Mos,Motium,Mozzo,Mós,mo zuo,mottsuo,Моцца,Моццо,Մոցո,モッツォ,莫佐",45.7,9.6,A,ADM3,IT,,09,BG,016143,,7470,,237,Europe/Rome,2020-06-07,Mozzo
3172866,Montella,Montella,"064057,Comune di Montella,Montella",40.85,15.01667,A,ADM3,IT,,04,AV,064057,,7670,,664,Europe/Rome,2020-06-07,Montella
3172949,Monte di Malo,Monte di Malo,"024063,Comune di Monte di Malo,Monte di Malo",45.63333,11.36667,A,ADM3,IT,,20,VI,024063,,2825,,439,Europe/Rome,2020-06-07,Monte di Malo
3172968,Montecopiolo,Montecopiolo,"041033,Comune di Montecopiolo,Montecopiolo",43.84087,12.3591,A,ADM3,IT,,10,PU,041033,,1091,,897,Europe/Rome,2020-06-07,Montecopiolo
3172995,Monte Cavallo,Monte Cavallo,"043027,Comune di Monte Cavallo,Manteh-Kavala,Mons Sancti Pauli,Monte Cavallo,Monte Kavallo,Monte Kavalo,Monte-Kavallo,meng tai ka wa luo,Мантэ-Кавала,Монте Кавало,Монте-Кавалло,Մոնտե Կավալլո,モンテ・カヴァッロ,蒙泰卡瓦洛",42.98333,13,A,ADM3,IT,,10,MC,043027,,122,,753,Europe/Rome,2020-06-07,Monte Cavallo
3173038,Monte Argentario,Monte Argentario,"053016,Comune di Monte Argentario,Manteh-Ardzhehntarya,Mons Argentarius,Monte Argentario,Monte-Ardzhentario,meng tai ya er zhen ta liao,Мантэ-Арджэнтарыа,Монте-Арджентарио,Монте-Арджентаріо,モンテ・アルジェンターリオ,蒙泰亚尔真塔廖",42.41667,11.16667,A,ADM3,IT,,16,GR,053016,,12397,,121,Europe/Rome,2020-06-07,Monte Argentario
3173130,Monrupino-Repentabor,Monrupino-Repentabor,"032002,Comune di Monrupino,Manrupina,Monrupin,Monrupino,Mons Rupinus,Repentabor,Rupingrande,meng lu pi nuo,monrupino,mwnrwpynw,Манрупіна,Монрупино,Монрупіно,Մոնրուպինո,مونروپینو,モンルピーノ,蒙鲁皮诺",45.73333,13.78333,A,ADM3,IT,,06,TS,032002,,865,,457,Europe/Rome,2020-06-07,Monrupino-Repentabor
3173476,Miagliano,Miagliano,"096034,Comune di Miagliano,Miagliano",45.61626,8.04534,A,ADM3,IT,,12,BI,096034,,571,,539,Europe/Rome,2020-06-07,Miagliano
3173788,Maslianico,Maslianico,"013144,Comune di Maslianico,Maslianico",45.8433,9.05128,A,ADM3,IT,,09,CO,013144,,3331,,256,Europe/Rome,2020-06-07,Maslianico
3173850,Martello/Martell,Martello/Martell,"021049,Comune di Martello,Martell,Martello,Martellum,Martelo,ma er tai luo,maruterro,Мартелло,Мартело,Մարտելո,マルテッロ,马尔泰洛",46.56667,10.78333,A,ADM3,IT,,17,BZ,021049,,841,,1303,Europe/Rome,2020-06-07,Martello/Martell
3173977,Marebbe/Enneberg,Marebbe/Enneberg,"021047,Comune di Marebbe,Enneberg,Gemeinde Enneberg,Marebbe,Marebe,Marehbeh,Mareo,Marubium,Pieve di Marebbe,ma lei bei,marebbe,Мареббе,Маребе,Марэбэ,Մարեբե,マレッベ,马雷贝",46.69792,11.93544,A,ADM3,IT,,17,BZ,021047,,3081,,1219,Europe/Rome,2020-06-07,Marebbe/Enneberg
3174085,Maniago,Maniago,"093025,Comune di Maniago,Mania,Maniago,Manià",46.16667,12.71667,A,ADM3,IT,,06,PN,093025,,11818,,273,Europe/Rome,2014-01-02,Maniago
3174094,Manerba del Garda,Manerba del Garda,"017102,Comune del Manerba del Garda,Comune di Manerba del Garda,Manerba del Garda,マネルバ・デル・ガルダ",45.55,10.55,A,ADM3,IT,,09,BS,017102,,5370,,131,Europe/Rome,2020-06-07,Manerba del Garda
3174436,Lurate Caccivio,Lurate Caccivio,"013138,Comune di Lurate Caccivio,Luraa,Lurate Caccivio,Lurate-Kachchivio,Luratum Cazivium,lu la tai ka qi wei ao,Лурате-Каччивио,Лурате-Каччивіо,Լուրատե Կաչիվիո,ルラーテ・カッチーヴィオ,卢拉泰卡奇维奥",45.76667,9,A,ADM3,IT,,09,CO,013138,,9846,,329,Europe/Rome,2020-06-07,Lurate Caccivio
3174478,Lumezzane,Lumezzane,"017096,Comune di Lumezzane,Lumezzane,Lumezzane San Sebastiano,rumettsuane,ルメッツァーネ",45.65,10.25,A,ADM3,IT,,09,BS,017096,,22130,,404,Europe/Rome,2020-06-07,Lumezzane
3174814,Lettere,Lettere,"063039,Comune di Lettere,Letere,Letteranum,Lettere,Littiri,lai tai lei,letele,rettere,Летере,Леттере,Լետերե,レッテレ,莱泰雷,레테레",40.7,14.55,A,ADM3,IT,,04,NA,063039,,6233,,315,Europe/Rome,2020-06-07,Lettere
3175012,Lavarone,Lavarone,"022102,Comune di Lavarone,Lavarone,ravuarone,ラヴァローネ",45.93632,11.27206,A,ADM3,IT,,17,TN,022102,,1162,,1154,Europe/Rome,2020-06-07,Lavarone
3175385,Ivrea,Ivrea,"001125,Comune di Ivrea,Ivrea",45.46687,7.87617,A,ADM3,IT,,12,TO,001125,,23442,260,256,Europe/Rome,2020-06-07,Ivrea
3175411,Isole Tremiti,Isole Tremiti,"071026,Comune di Isole Tremiti,Isole Tremiti,Tremiti,Trémiti",42.11594,15.48978,A,ADM3,IT,,13,FG,071026,,475,,48,Europe/Rome,2020-06-07,Isole Tremiti
3175495,Inverno e Monteleone,Inverno e Monteleone,"018077,Comune di Inverno e Monteleone,Inveraen e Muntaglion,Inverna-e-Mantehleoneh,Inverno e Monteleone,Inverno-e-Monteleone,Inverno-eh-Monteleone,Invernum et Mons Luponi,Invèrän e Muntagliòn,anfyrnw mwntylywny,yin wei er nuo ai meng tai lai ao nei,Інверна-е-Мантэлеонэ,Інверно-е-Монтелеоне,Инверно-е-Монтелеоне,Инверно-э-Монтелеоне,Ինվերնո է Մոնտելեոնե,إنفيرنو مونتيليوني,インヴェルノ・エ・モンテレオーネ,因韦尔诺埃蒙泰莱奥内",45.19471,9.39736,A,ADM3,IT,,09,PV,018077,,1490,,74,Europe/Rome,2020-06-07,Inverno e Monteleone
3175639,Idro,Idro,"017082,Comune di Idro,Edrum,Ider,Idro,idoro,yi de luo,Ìder,Ідро,Идро,Իդրո,イドロ,伊德罗",45.73333,10.48333,A,ADM3,IT,,09,BS,017082,,1862,,474,Europe/Rome,2020-06-07,Idro
3175677,Guidonia Montecelio,Guidonia Montecelio,"058047,Comune di Guidonia Montecelio,Guidonia Montecelio,グイドーニア・モンテチェーリオ",41.99994,12.72629,A,ADM3,IT,,07,RM,058047,,89671,,108,Europe/Rome,2020-06-07,Guidonia Montecelio
3175850,Greccio,Greccio,"057031,Comune di Greccio,Greccio",42.44354,12.75144,A,ADM3,IT,,07,RI,057031,,1550,,693,Europe/Rome,2020-06-07,Greccio
3176255,Gazzada Schianno,Gazzada Schianno,"012073,Comune di Gazzada Schianno,Gazzada Schianno",45.77948,8.83563,A,ADM3,IT,,09,VA,012073,,4617,,384,Europe/Rome,2020-06-07,Gazzada Schianno
3176672,Fortezza/Franzensfeste,Fortezza/Franzensfeste,"021032,Comune di Fortezza,Fartehcca,Forteca,Fortecca,Fortezza,Francisci Oppidum,Franzensfeste,Mezzaselva,Mezzozselva,forutettsua,fu er tai zha,Фартэцца,Фортеца,Фортецца,Ֆորտեցա,フォルテッツァ,福尔泰扎",46.78333,11.6,A,ADM3,IT,,17,BZ,021032,,1000,,1142,Europe/Rome,2020-06-07,Fortezza/Franzensfeste
3176920,Fiuminata,Fiuminata,"043019,Comune di Fiuminata,F'juminata,Fiuminata,Fjuminata,Fluminata,Fyuminata,fei wu mi na ta,fiuminata,Фиумината,Фьюмината,Фюміната,Ֆյումինատա,フィウミナータ,菲乌米纳塔",43.1869,12.93245,A,ADM3,IT,,10,MC,043019,,1317,,451,Europe/Rome,2020-06-07,Fiuminata
3177041,Fiastra,Fiastra,"043017,Comune di Fiastra,F'jastra,Fiastra,Fjastra,Flastra,fei ya si te la,fiasutora,Фиастра,Фьястра,Фястра,Ֆիաստրա,フィアストラ,菲亚斯特拉",43.03333,13.15,A,ADM3,IT,,10,MC,043017,,663,,888,Europe/Rome,2020-06-07,Fiastra
3177368,Erbusco,Erbusco,"017069,Comune di Erbusco,Erbusco,erubusuko,エルブスコ",45.6,9.96667,A,ADM3,IT,,09,BS,017069,,8694,,237,Europe/Rome,2020-06-07,Erbusco
3177450,Duino Aurisina / Devin Nabrežina,Duino Aurisina / Devin Nabrezina,"032001,Comune di Duino Aurisina,Duino Aurisina,Obcina Devin Nabrezina,Občina Devin Nabrežina",45.75058,13.67,A,ADM3,IT,,06,TS,032001,,8471,,138,Europe/Rome,2023-05-03,Duino Aurisina / Devin Nabrežina
3177607,Desulo,Desulo,"091016,Comune di Desulo,Desulo",40.01667,9.23333,A,ADM3,IT,,14,NU,091016,,2277,,935,Europe/Rome,2020-06-07,Desulo
3177973,Corteno Golgi,Corteno Golgi,"017063,Comune di Corteno Golgi,Corteno,Corteno Golgi,Córteno Golgi,コルテノ・ゴルジ",46.16667,10.23333,A,ADM3,IT,,09,BS,017063,,1953,,985,Europe/Rome,2020-06-07,Corteno Golgi
3178552,Claut,Claut,"093015,Claut,Comune di Claut",46.26667,12.51667,A,ADM3,IT,,06,PN,093015,,912,,620,Europe/Rome,2020-06-07,Claut
3178558,Claino con Osteno,Claino con Osteno,"013071,Claino con Osteno,Comune di Claino con Osteno",46.00665,9.08462,A,ADM3,IT,,09,CO,013071,,550,,283,Europe/Rome,2020-06-07,Claino con Osteno
3178567,Civitella Paganico,Civitella Paganico,"053008,Civitella-Paganico,Comune di Civitella-Paganico",42.95,11.28333,A,ADM3,IT,,16,GR,053008,,3154,,123,Europe/Rome,2020-06-07,Civitella Paganico
3178990,Cervinara,Cervinara,"064025,Cervinara,Comune di Cervinara",41.01667,14.61667,A,ADM3,IT,,04,AV,064025,,9407,,300,Europe/Rome,2020-06-07,Cervinara
3179378,Castrocaro Terme e Terra del Sole,Castrocaro Terme e Terra del Sole,"040005,Castrocaro Terme e Terra del Sole,Castrocaro e Terra del Sole,Comune di Castrocaro Terme e Terra del Sole,カストロカーロ・テルメ・エ・テッラ・デル・ソーレ",44.17482,11.94969,A,ADM3,IT,,05,FC,040005,,6377,,68,Europe/Rome,2020-06-07,Castrocaro Terme e Terra del Sole
3179548,Castelnovo del Friuli,Castelnovo del Friuli,"093011,Castelnovo del Friuli,Cjistielgnuf,Cjistielgnûf,Comune di Castelnovo del Friuli",46.19991,12.90293,A,ADM3,IT,,06,PN,093011,,861,,235,Europe/Rome,2020-06-07,Castelnovo del Friuli
3179627,Castelletto Uzzone,Castelletto Uzzone,"004050,Castelletto Uzzone,Castellettum Uxonis,Castlet Usson,Castlèt Usson,Comune di Castelletto Uzzone,Kastehleta-Uconeh,Kasteleto Ucone,Kastelletto-Uccone,ka si tai lai tu zuo nei,Кастелето Уцоне,Кастеллетто-Уццоне,Кастэлета-Уцонэ,Կաստելետո Ուցոնե,カステッレット・ウッツォーネ,卡斯泰莱图佐内",44.48333,8.2,A,ADM3,IT,,12,CN,004050,,314,,454,Europe/Rome,2020-06-07,Castelletto Uzzone
3179722,Castel d'Azzano,Castel d'Azzano,"023021,Castel d'Azzano,Comune di Castel d'Azzano,Comune di Castel d’Azzano",45.35637,10.95466,A,ADM3,IT,,20,VR,023021,,11910,,42,Europe/Rome,2020-06-07,Castel d'Azzano
3180125,Casamicciola Terme,Casamicciola Terme,"063019,Casamicciola,Casamicciola Terme,Casanizzola,Comune di Casamicciola Terme,カザミッチョーラ・テルメ",40.74804,13.90483,A,ADM3,IT,,04,NA,063019,,8084,,21,Europe/Rome,2020-06-07,Casamicciola Terme
3180410,Carrodano,Carrodano,"011010,Carrodano,Comune di Carrodano",44.23333,9.65,A,ADM3,IT,,08,SP,011010,,487,,343,Europe/Rome,2020-06-07,Carrodano
3180876,Cancello ed Arnone,Cancello ed Arnone,"061012,Cancello ed Arnone,Comune di Cancello ed Arnone",41.07314,14.02628,A,ADM3,IT,,04,CE,061012,,5679,,9,Europe/Rome,2020-06-07,Cancello ed Arnone
3180938,Campo nell'Elba,Campo nell'Elba,"049003,Campo nell'Elba,Comune di Campo nell'Elba",42.75,10.2,A,ADM3,IT,,16,LI,049003,,4840,,275,Europe/Rome,2020-06-07,Campo nell'Elba
3181282,Cafasse,Cafasse,"001046,Cafasse,Cafassiae,Comune di Cafasse,Kafase,Kafaseh,Kafasse,ka fa sai,kafasse,Кафассе,Кафасэ,Կաֆասե,カファッセ,卡法塞",45.25,7.51667,A,ADM3,IT,,12,TO,001046,,3416,,416,Europe/Rome,2020-06-07,Cafasse
3181469,Brusimpiano,Brusimpiano,"012024,Brusimpiano,Brusin,Brusinum Planum,Bruzimp'jano,Bruzimpiano,Bruzimpjana,Bruzimpjano,Comune di Brusimpiano,bu lu xin pi ya nuo,burujinpiano,Брузимпьяно,Брузімпяна,Брузімпяно,Բրուզիմպիանո,ブルジンピアーノ,布鲁辛皮亚诺",45.93333,8.88333,A,ADM3,IT,,09,VA,012024,,1202,,539,Europe/Rome,2020-06-07,Brusimpiano
3181558,Brenzone sul Garda,Brenzone sul Garda,"023014,Brencionum,Brencone,Brendzone,Brenjone,Brenson,Brenzone,Brenzone sul Garda,Comune di Brenzone,bu lun zuo nei,burenzone,Брендзоне,Бренцоне,Բրենձոնե,ブレンゾーネ,布伦佐内",45.7,10.78333,A,ADM3,IT,,20,VR,023014,,2464,,822,Europe/Rome,2020-06-07,Brenzone sul Garda
3181581,Bregnano,Bregnano,"013028,Bregnano,Comune di Bregnano",45.69603,9.05833,A,ADM3,IT,,09,CO,013028,,6503,,285,Europe/Rome,2020-06-07,Bregnano
3181616,Braies/Prags,Braies/Prags,"021009,Braies,Comune di Braies,Prags,buraiesu,ブラーイエス",46.71667,12.11667,A,ADM3,IT,,17,BZ,021009,,655,,1277,Europe/Rome,2020-06-07,Braies/Prags
3181645,Bovino,Bovino,"071007,Bovino,Comune di Bovino",41.25,15.33333,A,ADM3,IT,,13,FG,071007,,3206,,562,Europe/Rome,2020-06-07,Bovino
3181941,Bognanco,Bognanco,"103012,Banjanka,Bognanch,Bognanco,Bon'janko,Bonjanko,Bonyanko,Buegnanch,Buniancum,Bügnanch,Comune di Bognanco,bo nian ke,bonyanko,Банянка,Боньянко,Бонянко,Բոնյանկո,ボニャンコ,博年科",46.11667,8.2,A,ADM3,IT,,12,VB,103012,,188,,1011,Europe/Rome,2020-06-07,Bognanco
3182121,Berzo Demo,Berzo Demo,"017016,Berzo Demo,Comune di Berzo Demo",46.1,10.31667,A,ADM3,IT,,09,BS,017016,,1615,,607,Europe/Rome,2020-06-07,Berzo Demo
3182323,Barzio,Barzio,"097007,Barzio,Comune di Barzio",45.95,9.46667,A,ADM3,IT,,09,LC,097007,,1306,,777,Europe/Rome,2020-06-07,Barzio
3182443,Balsorano,Balsorano,"066007,Balsorano,Comune di Balsorano",41.8,13.56667,A,ADM3,IT,,01,AQ,066007,,3432,,320,Europe/Rome,2020-06-07,Balsorano
3183313,Albisola Superiore,Albisola Superiore,"009004,Albisola Superiore,Comune di Albisola Superiore,アルビソーラ・スペリオーレ",44.36667,8.46667,A,ADM3,IT,,08,SV,009004,,9882,,86,Europe/Rome,2020-06-07,Albisola Superiore
6535869,Pont-Saint-Martin,Pont-Saint-Martin,"007052,Comune di Pont-Saint-Martin,Pon Sen Marten,Pon-Sen-Marten,Pons Heliae,Pont-Saint-Martin,Pont-Sent-Martin,peng te-sa yi en te-ma er ting,pon=san=marutan,ponteusainteumaleutin,Пон Сен Мартен,Пон-Сен-Мартен,Պոն Սեն Մարտեն,ポン＝サン＝マルタン,蓬特-萨伊恩特-马尔廷,폰트사인트마르틴",45.59536,7.79451,A,ADM3,IT,,19,AO,007052,,3683,,328,Europe/Rome,2020-06-07,Pont-Saint-Martin
6535870,Saint-Oyen,Saint-Oyen,"007062,Comune di Saint-Oyen,Fanum Sancti Eugendi Augustensium,Saint-Oyen,Sent Oajan,Sent Owayen,Sent-Uajen,sa yi en te-ao yan,Сент Оаян,Сент-Уайен,Սենտ Ուայեն,سینٹ-ویں ، اوستا ویلی,萨伊恩特-奥延",45.82476,7.2156,A,ADM3,IT,,19,AO,007062,,194,,1369,Europe/Rome,2020-06-07,Saint-Oyen
6535871,Toscolano-Maderno,Toscolano-Maderno,"017187,Comune di Toscolano-Maderno,Toscolano-Maderno",45.63449,10.60838,A,ADM3,IT,,09,BS,017187,,7881,,72,Europe/Rome,2020-06-07,Toscolano-Maderno
6535872,Beura-Cardezza,Beura-Cardezza,"103011,Beura,Beura e Cardessa,Beura-Cardezza,Beura-Kardecca,Beura-Kardehcca,Bevera-Cardetia,Bèura e Cardëssa,Comune di Beura-Cardezza,bei wu la-ka er de zha,beura=karudettsua,Беура-Кардецца,Беўра-Кардэцца,Բեուրա Կարդեցա,ベウラ＝カルデッツァ,贝乌拉－卡尔德扎",46.07958,8.29972,A,ADM3,IT,,12,VB,103011,,1468,,256,Europe/Rome,2020-06-07,Beura-Cardezza
6535873,Gressoney-La-Trinité,Gressoney-La-Trinite,"007032,Comune di Gressoney-La-Trinite,Comune di Gressoney-La-Trinité,Gressoney-La-Trinite,Gressoney-La-Trinité",45.82967,7.82321,A,ADM3,IT,,19,AO,007032,,301,,1633,Europe/Rome,2020-06-07,Gressoney-La-Trinité
6535874,Premosello-Chiovenda,Premosello-Chiovenda,"103057,Comune di Premosello-Chiovenda,Prehmazela-Kjovenda,Premosello-Chiovenda,Premosellum,Premozello Kiovenda,Premozello-K'ovenda,Premusel,Premusél,pu lei mo sai luo-ji ao wen da,puremozerro=kiovuenda,Премозелло-Кьовенда,Прэмазела-Кёвенда,Պրեմոզելլո Կիովենդա,プレモゼッロ＝キオヴェンダ,普雷莫塞洛-基奥文达",46.00418,8.32892,A,ADM3,IT,,12,VB,103057,,1941,,225,Europe/Rome,2020-06-07,Premosello-Chiovenda
6535875,Laveno-Mombello,Laveno-Mombello,"012087,Comune di Laveno-Mombello,Laveno-Mombello",45.90438,8.61923,A,ADM3,IT,,09,VA,012087,,8685,,203,Europe/Rome,2020-06-07,Laveno-Mombello
6535876,Saint-Vincent,Saint-Vincent,"007065,Cillianum,Comune di Saint-Vincent,Saint-Vincent,Sen Vensan,Sen-Vensan,sa yi en te-wen qin te,san=vuansan,senbensen,Сен Венсан,Сен-Венсан,Սեն Վենսան,サン＝ヴァンサン,萨伊恩特-温琴特,센벤센",45.75126,7.64861,A,ADM3,IT,,19,AO,007065,,4582,,582,Europe/Rome,2020-06-07,Saint-Vincent
6535877,Saint-Pierre,Saint-Pierre,"007063,Comune di Saint-Pierre,Fanum Sancti Petri Augustensium,Saint-Pierre,Sen Pier,Sen-P'er,Sen-Per,sa yi en te-pi ye lei,san=pieru,snt pyr,syn-pyry  awsta wyly,Сен Пиер,Сен-Пер,Сен-Пьер,Сен-Пєр,Սեն Պիեռ,سنت پیر,سین-پیری، اوستا ویلی,サン＝ピエール,萨伊恩特-皮耶雷",45.70976,7.2273,A,ADM3,IT,,19,AO,007063,,3201,,693,Europe/Rome,2020-06-07,Saint-Pierre
6535878,Brissago-Valtravaglia,Brissago-Valtravaglia,"012022,Brissago-Valtravaglia,Comune di Brissago-Valtravaglia",45.94858,8.74613,A,ADM3,IT,,09,VA,012022,,1223,,418,Europe/Rome,2020-06-07,Brissago-Valtravaglia
6535879,Antey-Saint-André,Antey-Saint-Andre,"007002,Antey-Saint-Andre,Antey-Saint-André,Comune di Antey-Saint-Andre,Comune di Antey-Saint-André",45.80666,7.58881,A,ADM3,IT,,19,AO,007002,,571,,1038,Europe/Rome,2020-06-07,Antey-Saint-André
6535880,Gressoney-Saint-Jean,Gressoney-Saint-Jean,"007033,Comune di Gressoney-Saint-Jean,Gressoney-Saint-Jean",45.77507,7.82661,A,ADM3,IT,,19,AO,007033,,811,,1385,Europe/Rome,2020-06-07,Gressoney-Saint-Jean
6535881,Trentola Ducenta,Trentola Ducenta,"061094,Comune di Trentola-Ducenta,Trentola-Ducenta",40.97541,14.17623,A,ADM3,IT,,04,CE,061094,,20036,,46,Europe/Rome,2020-06-07,Trentola Ducenta
6535882,Nago-Torbole,Nago-Torbole,"022124,Comune di Nago-Torbole,Nago-Torbole",45.8729,10.87338,A,ADM3,IT,,17,TN,022124,,2815,,66,Europe/Rome,2020-06-07,Nago-Torbole
6535883,Cocquio-Trevisago,Cocquio-Trevisago,"012053,Cocquio-Trevisago,Comune di Cocquio-Trevisago",45.86288,8.68823,A,ADM3,IT,,09,VA,012053,,4740,,279,Europe/Rome,2020-06-07,Cocquio-Trevisago
6535884,Bovisio-Masciago,Bovisio-Masciago,"108010,Bavizia-Mashyjaga,Boisium Masciacum,Bovisio Masciago,Bovisio-Masciago,Bovizio Masago,Bovizio Mashago,Bovizio-Mashago,Bovizio-Mashiago,Buvis-Masciagh,Comune di Bovisio-Masciago,bo wei xiao-ma xia ge,bovuijio=mashago,Бавізіа-Машыяга,Бовизио Машаго,Бовизио-Машаго,Бовизио-Машиаго,Бовізіо-Машіаго,Բովիզիո Մաշագո,ボヴィージオ＝マシャーゴ,博维肖-马夏戈",45.60997,9.15564,A,ADM3,IT,,09,MB,108010,,16933,,190,Europe/Rome,2020-06-07,Bovisio-Masciago
6535885,Anterivo/Altrei,Anterivo/Altrei,"021003,Altrei,Anterivo,Comune di Anterivo",46.27851,11.36628,A,ADM3,IT,,17,BZ,021003,,398,,1221,Europe/Rome,2020-06-07,Anterivo/Altrei
6535886,Avelengo/Hafling,Avelengo/Hafling,"021005,Avelengo,Comune di Avelengo,Hafling",46.64442,11.22367,A,ADM3,IT,,17,BZ,021005,,778,,1289,Europe/Rome,2020-06-07,Avelengo/Hafling
6535887,Bressanone/Brixen,Bressanone/Brixen,"021011,Bressanone,Brixen,Comune di Bressanone",46.70893,11.65638,A,ADM3,IT,,17,BZ,021011,,22377,,559,Europe/Rome,2020-06-07,Bressanone/Brixen
6535888,Campo di Trens/Freienfeld,Campo di Trens/Freienfeld,"021016,Campo di Trens,Comune di Campo di Trens,Freienfeld",46.87463,11.48667,A,ADM3,IT,,17,BZ,021016,,2656,,993,Europe/Rome,2020-06-07,Campo di Trens/Freienfeld
6535889,Campo Tures/Sand in Taufers,Campo Tures/Sand in Taufers,"021017,Campo Tures,Comune di Campo Tures,Sand in Taufers",46.92033,11.95448,A,ADM3,IT,,17,BZ,021017,,5496,,878,Europe/Rome,2020-06-07,Campo Tures/Sand in Taufers
6535890,Castelrotto/Kastelruth,Castelrotto/Kastelruth,"021019,Castelrotto,Comune di Castelrotto,Kastelruth",46.56662,11.56098,A,ADM3,IT,,17,BZ,021019,,6855,,1070,Europe/Rome,2020-06-07,Castelrotto/Kastelruth
6535891,Cermes/Tscherms,Cermes/Tscherms,"021020,Cermes,Comune di Cermes,Tscherms",46.63462,11.14657,A,ADM3,IT,,17,BZ,021020,,1527,,288,Europe/Rome,2020-06-07,Cermes/Tscherms
6535892,Chienes/Kiens,Chienes/Kiens,"021021,Chienes,Comune di Chienes,Kiens",46.80463,11.84178,A,ADM3,IT,,17,BZ,021021,,2887,,792,Europe/Rome,2020-06-07,Chienes/Kiens
6535893,Chiusa/Klausen,Chiusa/Klausen,"021022,Chiusa,Comune di Chiusa,Klausen",46.64252,11.57198,A,ADM3,IT,,17,BZ,021022,,5215,,523,Europe/Rome,2020-06-07,Chiusa/Klausen
6535894,Curon Venosta/Graun im Vinschgau,Curon Venosta/Graun im Vinschgau,"021027,Comune di Curon Venosta,Curon Venosta,Graun im Vinschgau",46.80832,10.54265,A,ADM3,IT,,17,BZ,021027,,2389,,1533,Europe/Rome,2020-06-07,Curon Venosta/Graun im Vinschgau
6535895,Dobbiaco/Toblach,Dobbiaco/Toblach,"021028,Comune di Dobbiaco,Dobbiaco,Toblach",46.72493,12.22109,A,ADM3,IT,,17,BZ,021028,,3351,,1212,Europe/Rome,2020-06-07,Dobbiaco/Toblach
6535896,Egna/Neumarkt,Egna/Neumarkt,"021029,Comune di Egna,Egna,Neumarkt",46.31691,11.27258,A,ADM3,IT,,17,BZ,021029,,5384,,222,Europe/Rome,2020-06-07,Egna/Neumarkt
6535897,Falzes/Pfalzen,Falzes/Pfalzen,"021030,Comune di Falzes,Falzes,Pfalzen",46.81443,11.88368,A,ADM3,IT,,17,BZ,021030,,2823,,1039,Europe/Rome,2020-06-07,Falzes/Pfalzen
6535898,Gais/Gais,Gais/Gais,"021034,Comune di Gais - Gais,Gais,Gais - Gais",46.83693,11.94978,A,ADM3,IT,,17,BZ,021034,,3311,,840,Europe/Rome,2020-06-07,Gais/Gais
6535899,Gargazzone/Gargazon,Gargazzone/Gargazon,"021035,Comune di Gargazzone,Gargazon,Gargazzone",46.58482,11.20357,A,ADM3,IT,,17,BZ,021035,,1726,,272,Europe/Rome,2020-06-07,Gargazzone/Gargazon
6535900,Glorenza/Glurns,Glorenza/Glurns,"021036,Comune di Glorenza,Glorenza,Glurns",46.67021,10.55485,A,ADM3,IT,,17,BZ,021036,,900,,911,Europe/Rome,2020-06-07,Glorenza/Glurns
6535901,Laces/Latsch,Laces/Latsch,"021037,Comune di Laces - Latsch,Laces,Latsch",46.61691,10.85636,A,ADM3,IT,,17,BZ,021037,,5214,,640,Europe/Rome,2020-06-07,Laces/Latsch
6535902,Lagundo/Algund,Lagundo/Algund,"021038,Algund,Comune di Lagundo,Lagundo",46.68282,11.12297,A,ADM3,IT,,17,BZ,021038,,5005,,345,Europe/Rome,2020-06-07,Lagundo/Algund
6535903,Laion/Lajen,Laion/Lajen,"021039,Comune di Laion - Lajen,Laion,Lajen",46.60872,11.56598,A,ADM3,IT,,17,BZ,021039,,2715,,1083,Europe/Rome,2020-06-07,Laion/Lajen
6535904,Lana/Lana,Lana/Lana,"021041,Comune di Lana - Lana,Lana",46.61242,11.15587,A,ADM3,IT,,17,BZ,021041,,12511,,286,Europe/Rome,2020-06-07,Lana/Lana
6535905,Lasa/Laas,Lasa/Laas,"021042,Comune di Lasa,Laas,Lasa",46.61661,10.70016,A,ADM3,IT,,17,BZ,021042,,4045,,870,Europe/Rome,2020-06-07,Lasa/Laas
6535906,Lauregno/Laurein,Lauregno/Laurein,"021043,Comune di Lauregno,Lauregno,Laurein",46.45431,11.06177,A,ADM3,IT,,17,BZ,021043,,342,,1152,Europe/Rome,2020-06-07,Lauregno/Laurein
6535907,Malles Venosta/Mals,Malles Venosta/Mals,"021046,Comune di Malles Venosta,Malles Venosta,Mals",46.68791,10.54655,A,ADM3,IT,,17,BZ,021046,,5272,,1031,Europe/Rome,2020-06-07,Malles Venosta/Mals
6535908,Marlengo/Marling,Marlengo/Marling,"021048,Comune di Marlengo,Marlengo,Marling",46.65542,11.14287,A,ADM3,IT,,17,BZ,021048,,2791,,328,Europe/Rome,2020-06-07,Marlengo/Marling
6535909,Montagna/Montan,Montagna/Montan,"021053,Comune di Montagna,Montagna,Montan",46.33051,11.30088,A,ADM3,IT,,17,BZ,021053,,1701,,450,Europe/Rome,2020-06-07,Montagna/Montan
6535910,Moso in Passiria/Moos in Passeier,Moso in Passiria/Moos in Passeier,"021054,Comune di Moso in Passiria,Moos in Passeier,Moso in Passiria",46.83212,11.16647,A,ADM3,IT,,17,BZ,021054,,2086,,1036,Europe/Rome,2020-06-07,Moso in Passiria/Moos in Passeier
6535911,Nalles/Nals,Nalles/Nals,"021055,Comune di Nalles - Nals,Nalles,Nals",46.54332,11.20947,A,ADM3,IT,,17,BZ,021055,,2017,,273,Europe/Rome,2020-06-07,Nalles/Nals
6535912,Naturno/Naturns,Naturno/Naturns,"021056,Comune di Naturno,Naturno,Naturns",46.64872,11.00507,A,ADM3,IT,,17,BZ,021056,,5869,,528,Europe/Rome,2020-06-07,Naturno/Naturns
6535913,Nova Levante/Welschnofen,Nova Levante/Welschnofen,"021058,Comune di Nova Levante,Nova Levante,Welschnofen",46.43002,11.53778,A,ADM3,IT,,17,BZ,021058,,1973,,1168,Europe/Rome,2020-06-07,Nova Levante/Welschnofen
6535914,Nova Ponente/Deutschnofen,Nova Ponente/Deutschnofen,"021059,Comune di Nova Ponente,Deutschnofen,Nova Ponente,Nova Teutonica,Nova-Panenteh,Nova-Ponente,Nòva Ponènte,nuo wa bo nen tai,Нова Поненте,Нова-Панентэ,Нова-Поненте,Նովա Պոնենտե,ノーヴァ・ポネンテ,诺瓦波嫩泰",46.41291,11.43048,A,ADM3,IT,,17,BZ,021059,,3937,,1352,Europe/Rome,2020-06-07,Nova Ponente/Deutschnofen
6535915,Ora/Auer,Ora/Auer,"021060,Auer,Comune di Ora - Auer,Ora",46.34481,11.29538,A,ADM3,IT,,17,BZ,021060,,3825,,250,Europe/Rome,2020-06-07,Ora/Auer
6535916,Parcines/Partschins,Parcines/Partschins,"021062,Comune di Parcines,Parcines,Partschins",46.68422,11.07337,A,ADM3,IT,,17,BZ,021062,,3783,,643,Europe/Rome,2020-06-07,Parcines/Partschins
6535917,Perca/Percha,Perca/Percha,"021063,Comune di Perca - Percha,Perca,Percha",46.79343,11.98339,A,ADM3,IT,,17,BZ,021063,,1565,,1010,Europe/Rome,2020-06-07,Perca/Percha
6535918,Plaus/Plaus,Plaus/Plaus,"021064,Comune di Plaus - Plaus,Paludium,Plaus,pu lao si,purausu,Плаус,Плаўс,Պլաուս,プラウス,普劳斯",46.65672,11.04137,A,ADM3,IT,,17,BZ,021064,,724,,514,Europe/Rome,2020-06-07,Plaus/Plaus
6535919,Ponte Gardena/Waidbruck,Ponte Gardena/Waidbruck,"021065,Comune di Ponte Gardena,Ponte Gardena,Waidbruck",46.59712,11.53088,A,ADM3,IT,,17,BZ,021065,,195,,469,Europe/Rome,2020-06-07,Ponte Gardena/Waidbruck
6535920,Postal/Burgstall,Postal/Burgstall,"021066,Burgstall,Comune di Postal - Burgstall,Postal,Postal - Burgstall",46.61142,11.19347,A,ADM3,IT,,17,BZ,021066,,1872,,299,Europe/Rome,2020-06-07,Postal/Burgstall
6535921,Prato allo Stelvio/Prad am Stilfserjoch,Prato allo Stelvio/Prad am Stilfserjoch,"021067,Comune di Prato allo Stelvio,Prad am Stilfserjoch,Prato allo Stelvio",46.61901,10.59136,A,ADM3,IT,,17,BZ,021067,,3624,,907,Europe/Rome,2020-06-07,Prato allo Stelvio/Prad am Stilfserjoch
6535922,Predoi/Prettau,Predoi/Prettau,"021068,Comune di Predoi,Predoi,Prettau",47.04074,12.10588,A,ADM3,IT,,17,BZ,021068,,546,,1478,Europe/Rome,2020-06-07,Predoi/Prettau
6535923,San Candido/Innichen,San Candido/Innichen,"021077,Comune di San Candido,Innichen,San Candido",46.73303,12.27889,A,ADM3,IT,,17,BZ,021077,,3367,,1176,Europe/Rome,2020-06-07,San Candido/Innichen
6535924,San Genesio Atesino/Jenesien,San Genesio Atesino/Jenesien,"021079,Comune di San Genesio Atesino,Jenesien,San Genesio Atesino",46.53582,11.32958,A,ADM3,IT,,17,BZ,021079,,3066,,1107,Europe/Rome,2020-06-07,San Genesio Atesino/Jenesien
6535925,San Leonardo in Passiria/St. Leonhard in Passeier,San Leonardo in Passiria/St. Leonhard in Passeier,"021080,Comune di San Leonardo in Passiria - St. Leonhard in Passeier,San Leonardo in Passiria,San Leonardo in Passiria - St. Leonhard in Passeier,St. Leonhard in Passeier",46.81282,11.24577,A,ADM3,IT,,17,BZ,021080,,3558,,682,Europe/Rome,2020-06-07,San Leonardo in Passiria/St. Leonhard in Passeier
6535926,San Lorenzo di Sebato/St. Lorenzen,San Lorenzo di Sebato/St. Lorenzen,"021081,Comune di San Lorenzo di Sebato,San Lorenzo di Sebato,St. Lorenzen",46.78593,11.90938,A,ADM3,IT,,17,BZ,021081,,3885,,811,Europe/Rome,2020-06-07,San Lorenzo di Sebato/St. Lorenzen
6535927,San Pancrazio/St. Pankraz,San Pancrazio/St. Pankraz,"021084,Comune di San Pancrazio,San Pancrazio,St. Pankraz",46.58522,11.08617,A,ADM3,IT,,17,BZ,021084,,1544,,736,Europe/Rome,2020-06-07,San Pancrazio/St. Pankraz
6535928,Sarentino/Sarntal,Sarentino/Sarntal,"021086,Comune di Sarentino,Sarentino,Sarntal",46.64352,11.35577,A,ADM3,IT,,17,BZ,021086,,7145,,972,Europe/Rome,2020-06-07,Sarentino/Sarntal
6535929,Sesto/Sexten,Sesto/Sexten,"021092,Comune di Sesto,Sesto,Sexten",46.70243,12.35,A,ADM3,IT,,17,BZ,021092,,1880,,1309,Europe/Rome,2020-06-07,Sesto/Sexten
6535930,Silandro/Schlanders,Silandro/Schlanders,"021093,Comune di Silandro,Schlanders,Silandro",46.62841,10.77116,A,ADM3,IT,,17,BZ,021093,,6215,,730,Europe/Rome,2020-06-07,Silandro/Schlanders
6535931,Sluderno/Schluderns,Sluderno/Schluderns,"021094,Comune di Sluderno,Schluderns,Slounterno,Sluderno,Sludernum,Zludehrna,Zluderno,si lu de er nuo,zuruderuno,Σλουντέρνο,Злудерно,Злудэрна,Слудерно,Զլուդերնո,ズルデルノ,斯卢德尔诺",46.66451,10.58496,A,ADM3,IT,,17,BZ,021094,,1838,,926,Europe/Rome,2020-06-07,Sluderno/Schluderns
6535932,Stelvio/Stilfs,Stelvio/Stilfs,"021095,Comune di Stelvio,Stelvio,Stilfs",46.59801,10.54526,A,ADM3,IT,,17,BZ,021095,,1141,,1335,Europe/Rome,2020-06-07,Stelvio/Stilfs
6535933,Terento/Terenten,Terento/Terenten,"021096,Comune di Terento,Terenten,Terento",46.83053,11.77998,A,ADM3,IT,,17,BZ,021096,,1766,,1239,Europe/Rome,2020-06-07,Terento/Terenten
6535934,Terlano/Terlan,Terlano/Terlan,"021097,Comune di Terlano,Terlan,Terlano",46.53242,11.24537,A,ADM3,IT,,17,BZ,021097,,4473,,247,Europe/Rome,2020-06-07,Terlano/Terlan
6535935,Tesimo/Tisens,Tesimo/Tisens,"021099,Comune di Tesimo,Tesimo,Tisens",46.56542,11.16937,A,ADM3,IT,,17,BZ,021099,,1965,,636,Europe/Rome,2020-06-07,Tesimo/Tisens
6535936,Tires/Tiers,Tires/Tiers,"021100,Comune di Tires - Tiers,Tiers,Tires,Tyrehs,di lei si,tiresu,Тирес,Тырэс,Тірес,Տիրես,ティーレス,蒂雷斯",46.46832,11.52768,A,ADM3,IT,,17,BZ,021100,,1007,,1030,Europe/Rome,2020-06-07,Tires/Tiers
6535937,Trodena nel parco naturale/Truden im Naturpark,Trodena nel parco naturale/Truden im Naturpark,"021102,Comune di Trodena,Trodena,Trodena nel parco naturale,Truden im Naturpark",46.32231,11.35088,A,ADM3,IT,,17,BZ,021102,,1040,,1152,Europe/Rome,2020-06-07,Trodena nel parco naturale/Truden im Naturpark
6535938,Valdaora/Olang,Valdaora/Olang,"021106,Comune di Valdaora,Olang,Valdaora",46.75983,12.03099,A,ADM3,IT,,17,BZ,021106,,3205,,1053,Europe/Rome,2020-06-07,Valdaora/Olang
6535939,Varna/Vahrn,Varna/Vahrn,"021111,Comune di Varna,Gemeinde Vahrn,Vahrn,Varna",46.73822,11.63858,A,ADM3,IT,,17,BZ,021111,,4694,,637,Europe/Rome,2020-06-07,Varna/Vahrn
6535940,Villabassa/Niederdorf,Villabassa/Niederdorf,"021113,Comune di Villabassa,Niederdorf,Vilabasa,Villa Ima,Villabassa,vuirrabassa,wei la ba sa,Вилабаса,Виллабасса,Вілабаса,Віллабасса,Վիլաբասա,ヴィッラバッサ,维拉巴萨",46.73813,12.17139,A,ADM3,IT,,17,BZ,021113,,1597,,1152,Europe/Rome,2020-06-07,Villabassa/Niederdorf
6535941,Velturno/Feldthurns,Velturno/Feldthurns,"021116,Comune di Velturno,Feldthurns,Velturno",46.66752,11.59508,A,ADM3,IT,,17,BZ,021116,,2998,,863,Europe/Rome,2020-06-07,Velturno/Feldthurns
6535942,Corvara in Badia/Corvara,Corvara in Badia/Corvara,"021026,Comune di Corvara in Badia,Corvara,Corvara in Badia",46.55162,11.87019,A,ADM3,IT,,17,BZ,021026,,1378,,1523,Europe/Rome,2020-06-07,Corvara in Badia/Corvara
6535943,Comezzano-Cizzago,Comezzano-Cizzago,"017060,Comeza-Sizac,Comezanum-Cizagum,Comezzano-Cizzago,Comezzano-Cizzago vald,Comezà-Sizàc,Comune di Comezzano-Cizzago,Komeccano-Chiccago,Komedzano-Chidzago,ke mei zha nuo-qi zha ge,komettsuano=chittsuago,Комедзано-Чидзаго,Комеццано-Чиццаго,Կոմեցանո Չիցագո,コメッツァノ＝チッツァーゴ,科梅扎诺-奇扎戈",45.47128,9.95006,A,ADM3,IT,,09,BS,017060,,4000,,103,Europe/Rome,2020-06-07,Comezzano-Cizzago
6535944,Gabbioneta-Binanuova,Gabbioneta-Binanuova,"019045,Comune di Gabbioneta-Binanuova,Gabb'oneta-Binanuova,Gabbioneta-Binanuova,Gabbioneta-Binanuova vald,Gabianeta-Bina Nova,Gabianida-Binanova,Gabianida-Binanóva,Gabioneta Binanuova,Gabjoneta-Binanuova,gabbioneta=binanuovua,jia bi ao nei ta-bi na nuo wa,Габбьонета-Бинануова,Габбьонета-Бінануова,Габёнета-Бінануова,Գաբիոնետա Բինանուովա,ガッビオネータ＝ビナヌオーヴァ,加比奥内塔-比纳诺瓦",45.21627,10.22027,A,ADM3,IT,,09,CR,019045,,870,,36,Europe/Rome,2020-06-07,Gabbioneta-Binanuova
6535945,Ruffrè-Mendola,Ruffre-Mendola,"022162,Comune di Ruffre-Mendola,Comune di Ruffrè-Mendola,Ruffre,Ruffre-Mendola,Ruffredum,Ruffrè,Ruffrè-Mendola,Ruffré-Mendola,Rufre Mendola,Rufreh-Mendola,lu fu lei-men duo la,ruffure=mendora,Руфрэ-Мендола,Руффре-Мендола,Ռուֆրե Մենդոլա,ルッフレ＝メンドラ,鲁夫雷-门多拉",46.41481,11.17777,A,ADM3,IT,,17,TN,022162,,409,,1202,Europe/Rome,2020-06-07,Ruffrè-Mendola
6535946,Chiopris-Viscone,Chiopris-Viscone,"030024,Chiopris-Viscone,Cjopris e Viscon,Comune di Chiopris-Viscone,K'opris-Viskone,Kiopris Viskone,Kiopris-Viskone,Kjoprys-Viskoneh,Teupris - Viscon,ji ao pu li si-wei si ke nei,kiopurisu=vuisukone,Киоприс-Висконе,Кьоприс-Висконе,Кьоприс-Вісконе,Кёпрыс-Вісконэ,Կիոպրիս Վիսկոնե,キオプリス＝ヴィスコーネ,基奥普里斯-维斯科内",45.92712,13.40384,A,ADM3,IT,,06,UD,030024,,644,,33,Europe/Rome,2020-06-07,Chiopris-Viscone
6535947,Bellaria-Igea Marina,Bellaria-Igea Marina,"099001,Belaria Ijea Marina,Belarija-Idzhea Marina,Belaryja-Idzheha-Maryna,Bellaria – Igea Marina,Bellaria-Hygia Maris,Bellaria-Igea Marina,Bellaria–Igea Marina,Bellarija-Idzhea-Marina,Comune di Bellaria-Igea Marina,bei la li ya-yi gu ma li na,bylarya-ayjya maryna,Белария-Иджеа Марина,Беларыя-Іджэа-Марына,Беллария-Иджеа-Марина,Белларія-Іджеа-Марина,Բելարիա Իջեա Մարինա,بيلاريا-إيجيا مارينا,ベッラーリア＝イジェーア・マリーナ,贝拉里亚-伊贾马里纳",44.13857,12.46934,A,ADM3,IT,,05,RN,099001,,19569,,1,Europe/Rome,2020-06-07,Bellaria-Igea Marina
6535948,Brignano-Frascata,Brignano-Frascata,"006024,Bergnau e Frasca,Brignano,Brignano-Frascata,Brignanum-Frascata,Brin'jano-Fraskata,Brinyano Fraskata,Bryn'jany-Fraskata,Bërgnàu e Frascà,Comune di Brignano-Frascata,brynyanw fraskata,brynyanw-fraskata,bu li ni ya nuo-fu la si ka ta,burinyano=furasukata,Бриньяно-Фраската,Брыньяны-Фраската,Բրինյանո Ֆրասկատա,برينيانو فراسكاتا,برینیانو-فراسکاتا,ブリニャーノ＝フラスカータ,布里尼亚诺-夫拉斯卡塔",44.81285,9.04026,A,ADM3,IT,,12,AL,006024,,437,,297,Europe/Rome,2020-06-07,Brignano-Frascata
6535949,Travedona-Monate,Travedona-Monate,"012128,Comune di Travedona-Monate,Travedona Monaa,Travedona Monate,Travedona Monatum,Travedona-Monate,te la wei duo na-mo na tai,toravuedona=monate,Траведона-Монате,Տրավեդոնա Մոնատե,トラヴェドナ＝モナーテ,特拉韦多纳-莫纳泰",45.80427,8.67143,A,ADM3,IT,,09,VA,012128,,4057,,272,Europe/Rome,2020-06-07,Travedona-Monate
6535950,Uggiate-Trevano,Uggiate-Trevano,"013228,Comune di Uggiate-Trevano,Uggiate-Trevano",45.82338,8.95964,A,ADM3,IT,,09,CO,013228,,4957,,419,Europe/Rome,2020-06-07,Uggiate-Trevano
6535951,Senale-San Felice/Unsere Liebe Frau im Walde-St. Felix,Senale-San Felice/Unsere Liebe Frau im Walde-St. Felix,"021118,Comune di Senale-San Felice,Senale-San Felice,Unsere Liebe Frau im Walde-St. Felix",46.49261,11.13137,A,ADM3,IT,,17,BZ,021118,,762,,1274,Europe/Rome,2020-06-07,Senale-San Felice/Unsere Liebe Frau im Walde-St. Felix
6535952,Vignola-Falesina,Vignola-Falesina,"022216,Comune di Vignola-Falesina,Vignola-Falesina,Vin'jola-Falezina,Vin'ola-Falezina,Vineola-Falesina,Vinola Falezina,vuinyora=farejina,wei ni ao la-fa lai xi na,Виньола-Фалезина,Віньола-Фалезіна,Віньёла-Фалезіна,Վինոլա Ֆալեզինա,ヴィニョーラ＝ファレージナ,维尼奥拉-法莱西纳",46.0446,11.27628,A,ADM3,IT,,17,TN,022216,,173,,1005,Europe/Rome,2020-06-07,Vignola-Falesina
6535953,Bolzano/Bozen,Bolzano/Bozen,"021008,Bauzanum,Bocen,Bol'cano,Bolcan,Bolcanas,Bolcano,Bolcāno,Bolsan,Boltsano,Bolzan,Bolzano,Bolzano-Bozen,Bolzanu,Bolzán,Bolçan,Bozen,Bozen-Bolzano,Bozn,Bulsan,Bulsaun,Buzzanu,Comune di Bolzano,Gorad Bal'cana,bo er cha nuo,bolchano,boltsano,borutsuano,bwlsanw,bwlzanw,bwlznw,Μπολτσάνο,Болцано,Больцано,Боцен,Горад Бальцана,בולצנו,بولزانو,بولسانو,ბოლცანო,ボルツァーノ,波尔查诺,볼차노",46.49272,11.33358,A,ADM3,IT,,17,BZ,021008,,107739,,255,Europe/Rome,2020-06-07,Bolzano
6535954,Bronzolo/Branzoll,Bronzolo/Branzoll,"021012,Branzoll,Branzolum,Broncolo,Brontsolo,Bronzolo,Comune di Bronzolo,bu long zuo luo,burontsuoro,Μπροντσόλο,Бронцоло,Բրոնցոլո,ブロンツォーロ,布龙佐洛",46.40231,11.31948,A,ADM3,IT,,17,BZ,021012,,2808,,235,Europe/Rome,2020-06-07,Bronzolo/Branzoll
6535955,Castelbello-Ciardes/Kastelbell-Tschars,Castelbello-Ciardes/Kastelbell-Tschars,"021018,Castelbello-Ciardes,Castelbello-Ciardes - Kastelbell-Tschars,Castrum Bellum-Sardis,Comune di Castelbello-Ciardes,Kastehl'bela-Chyjardehs,Kastel'bello-Chardes,Kastel'bello-Chiardes,Kastelbell-Tschars,Kastelbelo-Chardes,ka si tai er bei luo-qia er de si,kasuteruberro=charudesu,Кастелбело-Чардес,Кастельбелло-Чардес,Кастельбелло-Чиардес,Кастельбелло-Чіардес,Кастэльбела-Чыярдэс,Կաստելբելո Չարդես,カステルベッロ＝チャルデス,卡斯泰尔贝洛-恰尔德斯",46.62832,10.90666,A,ADM3,IT,,17,BZ,021018,,2298,,570,Europe/Rome,2020-06-07,Castelbello-Ciardes/Kastelbell-Tschars
6535956,Laives/Leifers,Laives/Leifers,"021040,Clivus,Comune di Laives,Laives,Lajves,Layves,Leifers,Leifors,la yi wei si,raivuesu,Λάιβες,Лайвес,Լայվես,ライヴェス,拉伊韦斯",46.42281,11.33478,A,ADM3,IT,,17,BZ,021040,,18073,,251,Europe/Rome,2020-06-07,Laives/Leifers
6535957,Merano/Meran,Merano/Meran,"021051,Comune di Merano,Meran,Merano",46.66812,11.16127,A,ADM3,IT,,17,BZ,021051,,40862,,313,Europe/Rome,2020-06-07,Merano/Meran
6535958,Salorno sulla strada del vino/Salurn an der Weinstraße,Salorno sulla strada del vino/Salurn an der Weinstrasse,"021076,Comune di Salorno,Salorna,Salorno,Salurn,Salurnum,sa luo er nuo,saroruno,Салорна,Салорно,Սալորնո,サロルノ,萨洛尔诺",46.23921,11.21208,A,ADM3,IT,,17,BZ,021076,,3827,,219,Europe/Rome,2020-06-07,Salorno sulla strada del vino/Salurn an der Weinstraße
6535959,Vadena/Pfatten,Vadena/Pfatten,"021105,Comune di Vadena,Pfatten,Vadena",46.41361,11.30498,A,ADM3,IT,,17,BZ,021105,,1057,,225,Europe/Rome,2020-06-07,Vadena/Pfatten
6535960,Calatafimi-Segesta,Calatafimi-Segesta,"081003,Calatafimi Segesta,Calatafimi-Segesta,Calatafimi-Seggesta,Calatafinum,Comune di Calatafimi-Segesta,Kalatafimi,Kalatafimi Sedzhesta,Kalatafimi Sejesta,Kalatafimi-Sedzhesta,ka la ta fei mi sai jie si ta,kalatafymy syjysta,karatafimi=sejesuta,Калатафими Седжеста,Калатафими-Седжеста,Калатафімі-Седжеста,Կալատաֆիմի Սեջեստա,كالاتافيمي سيجيستا,კალატაფიმი-სეჯესტა,カラタフィーミ＝セジェスタ,卡拉塔菲米塞杰斯塔",37.91484,12.86254,A,ADM3,IT,,15,TP,081003,,6495,,340,Europe/Rome,2020-06-07,Calatafimi-Segesta
6535961,Giardini-Naxos,Giardini-Naxos,"083032,Comune di Giardini-Naxos,Dzhardini-Naksos,Dzhardzini-Naksas,Dziardini Naksas,Džiardini Naksas,Giaddini,Giardini Naxos,Giardini-Naxos,Viridiana,gu er di ni-na ke suo si,jardini-naksosi,jardyny naksws,jarudini=nakusosu,Ђардини-Наксос,Джардзіні-Наксас,Джардини-Наксос,Джардіні-Наксос,Ջարդինի Նաքսոս,جارديني ناكسوس,ჯარდინი-ნაქსოსი,ジャルディーニ＝ナクソス,贾尔迪尼-纳克索斯",37.82226,15.26749,A,ADM3,IT,,15,ME,083032,,9325,,17,Europe/Rome,2020-06-07,Giardini-Naxos
6535962,Cavallino-Treporti,Cavallino-Treporti,"027044,Cavallino-Treporti,Comune di Cavallino-Treporti",45.4816,12.56192,A,ADM3,IT,,20,VE,027044,,13526,,0,Europe/Rome,2020-06-07,Cavallino-Treporti
6535963,Pré-Saint-Didier,Pre-Saint-Didier,"007053,Comune di Pre-Saint-Didier,Comune di Pré-Saint-Didier,Pre-Saint-Didier,Pré-Saint-Didier",45.76416,6.98579,A,ADM3,IT,,19,AO,007053,,1015,,1021,Europe/Rome,2020-06-07,Pré-Saint-Didier
6535964,Rhêmes-Notre-Dame,Rhemes-Notre-Dame,"007055,Comune di Rhemes-Notre-Dame,Rhemes-Notre-Dame",45.56965,7.1187,A,ADM3,IT,,19,AO,007055,,79,,1725,Europe/Rome,2020-06-07,Rhêmes-Notre-Dame
6535965,Castello-Molina di Fiemme,Castello-Molina di Fiemme,"022047,Castello-Molina di Fiemme,Comune di Castello-Molina di Fiemme",46.28241,11.43348,A,ADM3,IT,,17,TN,022047,,2325,,970,Europe/Rome,2020-06-07,Castello-Molina di Fiemme
6535966,Saint-Rhémy-en-Bosses,Saint-Rhemy-en-Bosses,"007064,Comune di Saint-Rhemy-en-Bosses,Comune di Saint-Rhémy-en-Bosses,Saint-Rhemy-en-Bosses,Saint-Rhémy-en-Bosses",45.82181,7.17562,A,ADM3,IT,,19,AO,007064,,318,,1563,Europe/Rome,2020-06-07,Saint-Rhémy-en-Bosses
6535967,Badia/Abtei,Badia/Abtei,"021006,Abbatia Ladinorum,Abtei,Badia,Badija,Comune di Badia - Abtei,ba di ya,badia,Бадия,Бадија,Бадія,Բադիա,バディーア,巴迪亚",46.61012,11.89349,A,ADM3,IT,,17,BZ,021006,,3505,,1333,Europe/Rome,2020-06-07,Badia/Abtei
6535968,Brunico/Bruneck,Brunico/Bruneck,"021013,Bruneck,Brunico,Comune di Brunico",46.79583,11.93638,A,ADM3,IT,,17,BZ,021013,,16716,,838,Europe/Rome,2020-06-07,Brunico/Bruneck
6535969,Caldaro sulla strada del vino/Kaltern an der Weinstraße,Caldaro sulla strada del vino/Kaltern an der Weinstrasse,"021015,Caldaro sulla strada del vino,Comune di Caldaro sulla strada del vino,Kaltern,Kaltern an der Weinstrasse,Kaltern an der Weinstraße",46.41321,11.24118,A,ADM3,IT,,17,BZ,021015,,8104,,451,Europe/Rome,2020-06-07,Caldaro sulla strada del vino/Kaltern an der Weinstraße
6535970,Cortaccia sulla strada del vino/Kurtatsch an der Weinstraße,Cortaccia sulla strada del vino/Kurtatsch an der Weinstrasse,"021024,Comune di Cortaccia sulla strada del vino,Cortaccia sulla strada del vino,Kurtatsch an der Weinstrasse,Kurtatsch an der Weinstraße",46.31401,11.22388,A,ADM3,IT,,17,BZ,021024,,2239,,344,Europe/Rome,2020-06-07,Cortaccia sulla strada del vino/Kurtatsch an der Weinstraße
6535971,Fiè allo Sciliar/Völs am Schlern,Fie allo Sciliar/Voels am Schlern,"021031,Comune di Fie allo Sciliar,Comune di Fiè allo Sciliar,Fellis,Fie Allo Sciliar,Fie allo Sciliar,Fie alo Shiliar,Fie alo Siliar,Fie-ala-Shylijar,Fie-allo-Shiliar,Fije Alo Shilijar,Fiè Allo Sciliar,Fiè allo Sciliar,Voels am Schlern,Völs am Schlern,fei ai a luo xi li ya er,Фие ало Шилиар,Фие-алло-Шилиар,Фије Ало Шилијар,Фіе-ала-Шыліяр,Фіє-алло-Шиліар,Ֆիե ալո Շիլիար,フィエー・アッロ・シーリアル,菲埃阿洛希利亚尔",46.51672,11.50128,A,ADM3,IT,,17,BZ,021031,,3579,,873,Europe/Rome,2020-06-07,Fiè allo Sciliar/Völs am Schlern
6535972,Luson/Lüsen,Luson/Luesen,"021044,Comune di Luson - Luesen,Luesen,Lusina,Luson,Luson - Luesen,Luzon,Lüsen,lu song,ruzon,Лузон,Լուզոն,ルゾーン,卢松",46.74623,11.76098,A,ADM3,IT,,17,BZ,021044,,1574,,971,Europe/Rome,2020-06-07,Luson/Lüsen
6535973,Meltina/Mölten,Meltina/Moelten,"021050,Comune di Meltina,Meltina,Moelten,Mölten",46.58802,11.25477,A,ADM3,IT,,17,BZ,021050,,1692,,1159,Europe/Rome,2020-06-07,Meltina/Mölten
6535974,Monguelfo-Tesido/Welsberg-Taisten,Monguelfo-Tesido/Welsberg-Taisten,"021052,Comune di Monguelfo-Tesido,Monguelfo-Tesido,Welsberg-Taisten",46.75573,12.10529,A,ADM3,IT,,17,BZ,021052,,2914,,1087,Europe/Rome,2020-06-07,Monguelfo-Tesido/Welsberg-Taisten
6535975,Naz-Sciaves/Natz-Schabs,Naz-Sciaves/Natz-Schabs,"021057,Comune di Naz-Sciaves,Natz-Schabs,Naz-Sciaves",46.76883,11.66558,A,ADM3,IT,,17,BZ,021057,,3230,,777,Europe/Rome,2020-06-07,Naz-Sciaves/Natz-Schabs
6535976,Ortisei/St. Ulrich,Ortisei/St. Ulrich,"021061,Comune di Ortisei - St. Ulrich,Ortisei,Ortisei - St. Ulrich,St. Ulrich",46.57432,11.66748,A,ADM3,IT,,17,BZ,021061,,4869,,1210,Europe/Rome,2020-06-07,Ortisei/St. Ulrich
6535977,Rio di Pusteria/Mühlbach,Rio di Pusteria/Muehlbach,"021074,Comune di Rio di Pusteria - Muehlbach,Muehlbach,Mühlbach,Rio di Pusteria,Rio di Pusteria - Muehlbach",46.79783,11.66808,A,ADM3,IT,,17,BZ,021074,,3151,,762,Europe/Rome,2020-06-07,Rio di Pusteria/Mühlbach
6535978,San Martino in Passiria/St. Martin in Passeier,San Martino in Passiria/St. Martin in Passeier,"021083,Comune di San Martino in Passiria,San Martino in Passiria,St. Martin,St. Martin in Passeier",46.78392,11.22727,A,ADM3,IT,,17,BZ,021083,,3255,,596,Europe/Rome,2020-06-07,San Martino in Passiria/St. Martin in Passeier
6535979,Santa Cristina Valgardena/St. Christina in Gröden,Santa Cristina Valgardena/St. Christina in Groeden,"021085,Comune di Santa Cristina Valgardena,Santa Cristina Valgardena,St. Christina in Groeden,St. Christina in Gröden",46.55892,11.71918,A,ADM3,IT,,17,BZ,021085,,1974,,1430,Europe/Rome,2020-06-07,Santa Cristina Valgardena/St. Christina in Gröden
6535980,Selva dei Molini/Mühlwald,Selva dei Molini/Muehlwald,"021088,Comune di Selva dei Molini,Muehlwald,Mühlwald,Selva dei Molini",46.89093,11.86018,A,ADM3,IT,,17,BZ,021088,,1432,,1186,Europe/Rome,2020-06-07,Selva dei Molini/Mühlwald
6535981,Selva di Val Gardena/Wolkenstein in Gröden,Selva di Val Gardena/Wolkenstein in Groeden,"021089,Comune di Selva di Val Gardena,Selva di Val Gardena,Wolkenstein in Groeden,Wolkenstein in Gröden",46.55472,11.76038,A,ADM3,IT,,17,BZ,021089,,2629,,1567,Europe/Rome,2020-06-07,Selva di Val Gardena/Wolkenstein in Gröden
6535982,Termeno sulla strada del vino/Tramin an der Weinstraße,Termeno sulla strada del vino/Tramin an der Weinstrasse,"021098,Comune di Termeno sulla strada del vino,Termeno sulla strada del vino,Tramin an der Weinstrasse,Tramin an der Weinstraße",46.34151,11.24228,A,ADM3,IT,,17,BZ,021098,,3431,,260,Europe/Rome,2020-06-07,Termeno sulla strada del vino/Tramin an der Weinstraße
6535983,Tubre/Taufers im Münstertal,Tubre/Taufers im Muenstertal,"021103,Comune di Tubre,Taufers im Muenstertal,Taufers im Münstertal,Tubre",46.64561,10.46415,A,ADM3,IT,"IT,CH",17,BZ,021103,,969,,1249,Europe/Rome,2020-06-07,Tubre/Taufers im Münstertal
6535984,Vipiteno/Sterzing,Vipiteno/Sterzing,"021115,Comune di Vipiteno,Sterzing,Vipiteno",46.89253,11.43007,A,ADM3,IT,,17,BZ,021115,,6979,,945,Europe/Rome,2020-06-07,Vipiteno/Sterzing
6535985,Montecatini-Terme,Montecatini-Terme,"047011,Comune di Montecatini-Terme,Montecatini Terme,Montecatini-Terme",43.88355,10.77361,A,ADM3,IT,,16,PT,047011,,20673,,34,Europe/Rome,2020-06-07,Montecatini-Terme
6535986,Rifiano/Riffian,Rifiano/Riffian,"021073,Comune di Rifiano,Riffian,Rifiano",46.70372,11.18167,A,ADM3,IT,,17,BZ,021073,,1362,,490,Europe/Rome,2020-06-07,Rifiano/Riffian
6535987,Appiano sulla strada del vino/Eppan an der Weinstraße,Appiano sulla strada del vino/Eppan an der Weinstrasse,"021004,Appiano sulla strada del vino,Comune di Appiano sulla strada del vino,Eppan an der Weinstrasse,Eppan an der Weinstraße",46.45472,11.26178,A,ADM3,IT,,17,BZ,021004,,14934,,407,Europe/Rome,2020-06-07,Appiano sulla strada del vino/Eppan an der Weinstraße
6535988,Campiglione Fenile,Campiglione Fenile,"001049,Campiglione Fenile,Campilhon e Fenil,Campilio-Fines Pineroliensium,Campion e Fnil,Comune di Campiglione-Fenile,Kampil'jone-Fenile,Kampil'joneh-Fenile,Kampil'one-Fenile,Kampilone Fenile,kan pi liao nei fei ni lai,kanpirione=fenire,Кампильоне-Фениле,Кампільйоне-Феніле,Кампільёнэ-Феніле,Կամպիլոնե Ֆենիլե,カンピリオーネ＝フェニーレ,坎皮廖内费尼莱",44.80284,7.32422,A,ADM3,IT,,12,TO,001049,,1341,,365,Europe/Rome,2020-06-07,Campiglione Fenile
6535989,Saint-Denis,Saint-Denis,"007059,Comune di Saint-Denis,Fanum Sancti Dionysii Augustensium,Saint-Denis,Sen Deni,Sen-Dehni,Sen-Deni,san=doni,sheng dan ni,Сен Дени,Сен-Дени,Сен-Дені,Сен-Дэні,Սեն Դենի,سینٹ-ڈینس، اوستا ویلی,サン＝ドニ,圣但尼",45.75256,7.55531,A,ADM3,IT,,19,AO,007059,,375,,813,Europe/Rome,2020-06-07,Saint-Denis
6535990,Challand-Saint-Anselme,Challand-Saint-Anselme,"007013,Challand-Saint-Anselme,Comune di Challand-Saint-Anselme",45.71456,7.73451,A,ADM3,IT,,19,AO,007013,,753,,1051,Europe/Rome,2020-06-07,Challand-Saint-Anselme
6535991,Challand-Saint-Victor,Challand-Saint-Victor,"007014,Challand-Saint-Victor,Comune di Challand-Saint-Victor",45.69046,7.70471,A,ADM3,IT,,19,AO,007014,,555,,789,Europe/Rome,2020-06-07,Challand-Saint-Victor
6535992,Cadegliano-Viconago,Cadegliano-Viconago,"012027,Cadegliano-Viconago,Comune di Cadegliano-Viconago",45.95948,8.84343,A,ADM3,IT,,09,VA,012027,,2181,,429,Europe/Rome,2020-06-07,Cadegliano-Viconago
6535993,Gornate Olona,Gornate Olona,"012080,Comune di Gornate-Olona,Gornate Olona",45.74157,8.85994,A,ADM3,IT,,09,VA,012080,,2193,,307,Europe/Rome,2020-06-07,Gornate Olona
6535994,Casale Cremasco-Vidolasco,Casale Cremasco-Vidolasco,"019017,Casale Cremasco-Vidolasco,Comune di Casale Cremasco-Vidolasco",45.43187,9.71416,A,ADM3,IT,,09,CR,019017,,1867,,90,Europe/Rome,2020-06-07,Casale Cremasco-Vidolasco
6535995,Gadesco-Pieve Delmona,Gadesco-Pieve Delmona,"019046,Comune di Gadesco-Pieve Delmona,Gadesco-Pieve Delmona",45.15767,10.11567,A,ADM3,IT,,09,CR,019046,,1954,,43,Europe/Rome,2020-06-07,Gadesco-Pieve Delmona
6535996,La Valle/Wengen,La Valle/Wengen,"021117,Comune di La Valle,La Val,La Vale,La Valle,La-Vale,La-Valle,Vallis Ladinorum,Wengen,la wa lai,Ла Вале,Ла-Вале,Ла-Валле,Լա Վալե,ラ・ヴァッレ,拉瓦莱",46.65763,11.92399,A,ADM3,IT,,17,BZ,021117,,1389,,1347,Europe/Rome,2020-06-07,La Valle/Wengen
6535997,Lona-Lases,Lona-Lases,"022108,Comune di Lona-Lases,Lona Lazes,Lona-Lases,Lona-Lasesium,Lona-Lazes,luo na-la sai si,rona=razesu,Лона-Лазес,Լոնա Լազես,ローナ＝ラーゼス,洛纳-拉塞斯",46.14421,11.21958,A,ADM3,IT,,17,TN,022108,,862,,635,Europe/Rome,2020-06-07,Lona-Lases
6535998,Ronzo-Chienis,Ronzo-Chienis,"022135,Clanisium et Rontium,Comune di Ronzo-Chienis,Ronca-Kenis,Ronco-K'enis,Ronco-Kenis,Ronzo-Chienis,long zuo-ji ye ni si,rontsuo=kienisu,Ронца-Кеніс,Ронцо-Кьенис,Ронцо-Кєніс,Ռոնցո Կիենիս,ロンツォ＝キエーニス,龙佐-基耶尼斯",45.8896,10.95008,A,ADM3,IT,,17,TN,022135,,996,,976,Europe/Rome,2020-06-07,Ronzo-Chienis
6535999,Rhêmes-Saint-Georges,Rhemes-Saint-Georges,"007056,Comune di Rhemes-Saint-Georges,Rhemes-Saint-Georges",45.65226,7.1544,A,ADM3,IT,,19,AO,007056,,172,,1171,Europe/Rome,2020-06-07,Rhêmes-Saint-Georges
6536000,Rodengo Saiano,Rodengo Saiano,"017163,Comune di Rodengo Saiano,Rodench,Rodengo Saiano,Rodengo-Saiano,Rodengo-Sajano,Rodengum-Saianum,Rodènch,luo deng ge-sa yi a nuo,rodengo=saiano,Роденго-Саяно,Ռոդենգո Սաիանո,ロデンゴ＝サイアーノ,罗登戈-萨伊阿诺",45.59958,10.10717,A,ADM3,IT,,09,BS,017163,,9776,,180,Europe/Rome,2020-06-07,Rodengo Saiano
6536001,Saint-Christophe,Saint-Christophe,"007058,Comune di Saint-Christophe,Fanum Sancti Christophori Augustensium,Saint-Christophe,Sen Kristof,Sen-Kristof,Sen-Krystof,sainteukeuliseutope,san=kurisutofu,sheng ke li si tuo fei,Сен Кристоф,Сен-Кристоф,Сен-Крыстоф,Սեն Քրիստոֆ,سینٹ-کروسٹوفے، اوستا ویلی,サン＝クリストフ,圣克里斯托费,사인트크리스토페",45.75406,7.3472,A,ADM3,IT,,19,AO,007058,,3499,,774,Europe/Rome,2020-06-07,Saint-Christophe
6536002,Saint-Marcel,Saint-Marcel,"007060,Comune di Saint-Marcel,Fanum Sancti Marcelli Augustensium,Saint-Marcel,Sen Marsel,Sen-Marsel',sa yi en te-ma er qie er,sainteumaleuchel,san=maruseru,Сен-Марсель,Սեն Մարսել,سینٹ-مارسیل، اوستا ویلی,サン＝マルセル,萨伊恩特-马尔切尔,사인트마르첼",45.73146,7.4482,A,ADM3,IT,,19,AO,007060,,1344,,601,Europe/Rome,2020-06-07,Saint-Marcel
6536003,Saint-Nicolas,Saint-Nicolas,"007061,Comune di Saint-Nicolas,Saint-Nicolas",45.71656,7.1667,A,ADM3,IT,,19,AO,007061,,317,,1208,Europe/Rome,2020-06-07,Saint-Nicolas
6536004,Aldino/Aldein,Aldino/Aldein,"021001,Al'dino,Aldein,Aldeinum,Aldino,Aldino - Aldein,Alntain,Comune di Aldino,a er di nuo,aldino,aldyn,arudino,Άλνταϊν,Алдино,Алдино - Алдеин,Альдино,Альдіно,Ալդինո,الدین,アルディーノ,阿尔迪诺,알디노",46.36581,11.35508,A,ADM3,IT,,17,BZ,021001,,1656,,1191,Europe/Rome,2020-06-07,Aldino/Aldein
6536005,Andriano/Andrian,Andriano/Andrian,"021002,Andrian,Andriano,Andrianum,Andrijano,Andryjana,Antriano,Comune di Andriano,an de li ya nuo,andeuliano,andoriano,andryan,Αντριάνο,Андриано,Андријано,Андрыяна,Андріано,Անդրիանո,آندریان,アンドリアーノ,安德里亚诺,안드리아노",46.51762,11.23137,A,ADM3,IT,,17,BZ,021002,,1030,,291,Europe/Rome,2020-06-07,Andriano/Andrian
6536006,Barbiano/Barbian,Barbiano/Barbian,"021007,Barb'jano,Barbian,Barbiano,Barbiano - Barbian,Barbianum,Barbijano-Barbijan,Barbjana,Barbjano,Barmen,Barmpiano,Comune di Barbiano,ba er bi ya nuo,barubiano,Μπαρμπιάνο,Барбиано,Барбијано-Барбијан,Барбьяно,Барбяна,Барбяно,Բարբիանո,バルビアーノ,巴尔比亚诺",46.60332,11.52138,A,ADM3,IT,,17,BZ,021007,,1755,,784,Europe/Rome,2020-06-07,Barbiano/Barbian
6536007,Brennero/Brenner,Brennero/Brenner,"021010,Brenner,Brennero,Comune di Brennero",46.93813,11.44247,A,ADM3,IT,,17,BZ,021010,,2232,,1075,Europe/Rome,2020-06-07,Brennero/Brenner
6536008,Caines/Kuens,Caines/Kuens,"021014,Caines,Caines - Kuens,Cainina,Comune di Caines - Kuens,Kaines,Kajnes,Kaynes,Kuens,ka yi nei si,kainesu,Кайнес,Каїнес,Կայնես,カイネス,卡伊内斯",46.70002,11.16987,A,ADM3,IT,,17,BZ,021014,,395,,635,Europe/Rome,2020-06-07,Caines/Kuens
6536009,Cornedo all'Isarco/Karneid,Cornedo all'Isarco/Karneid,"021023,Comune di Cornedo all'Isarco,Cornedo all'Isarco,Karneid",46.48981,11.40484,A,ADM3,IT,,17,BZ,021023,,3430,,485,Europe/Rome,2020-06-07,Cornedo all'Isarco/Karneid
6536010,Cortina sulla strada del vino/Kurtinig an der Weinstraße,Cortina sulla strada del vino/Kurtinig an der Weinstrasse,"021025,Comune di Cortina sulla strada del vino,Cortina sulla strada del vino,Kurtinig an der Weinstrasse,Kurtinig an der Weinstraße",46.26941,11.22188,A,ADM3,IT,,17,BZ,021025,,665,,212,Europe/Rome,2020-06-07,Cortina sulla strada del vino/Kurtinig an der Weinstraße
6536011,Funes/Villnöß,Funes/Villnoess,"021033,Comune di Funes,Funes,Villnoess,Villnöß",46.64282,11.67828,A,ADM3,IT,,17,BZ,021033,,2629,,1136,Europe/Rome,2020-06-07,Funes/Villnöß
6536012,Magrè sulla strada del vino/Margreid an der Weinstraße,Magre sulla strada del vino/Margreid an der Weinstrasse,"021045,Comune di Magre sulla strada del vino - Margreid an der Weinstrasse,Comune di Magrè sulla strada del vino - Margreid an der Weinstrasse,Magre sulla strada del vino,Magrè sulla strada del vino,Margreid an der Weinstrasse,Margreid an der Weinstraße",46.28791,11.21068,A,ADM3,IT,,17,BZ,021045,,1274,,234,Europe/Rome,2020-06-07,Magrè sulla strada del vino/Margreid an der Weinstraße
6536013,Proves/Proveis,Proves/Proveis,"021069,Comune di Proves,Proveis,Proves,Proves - Proveis,Provessum,pu luo wei si,purovuesu,Провес,Պրովես,プロヴェス,普罗韦斯",46.47661,11.02247,A,ADM3,IT,,17,BZ,021069,,265,,1412,Europe/Rome,2020-06-07,Proves/Proveis
6536014,Racines/Ratschings,Racines/Ratschings,"021070,Comune di Racines - Ratschings,Racines,Racines - Ratschings,Ratschings",46.88183,11.37827,A,ADM3,IT,,17,BZ,021070,,4497,,975,Europe/Rome,2020-06-07,Racines/Ratschings
6536015,Renon/Ritten,Renon/Ritten,"021072,Comune di Renon - Ritten,Rehnon,Renon,Ritan,Ritanum,Riten,Ritten,lei nong,renon,Ρίτεν,Ренон,Рэнон,Ռենոն,レノン,雷农",46.54152,11.45728,A,ADM3,IT,,17,BZ,021072,,7955,,1208,Europe/Rome,2020-06-07,Renon/Ritten
6536016,Rodengo/Rodeneck,Rodengo/Rodeneck,"021075,Comune di Rodengo - Rodeneck,Rodeneck,Rodengo,Rodengo - Rodeneck",46.77953,11.69048,A,ADM3,IT,,17,BZ,021075,,1240,,899,Europe/Rome,2020-06-07,Rodengo/Rodeneck
6536017,San Martino in Badia/St. Martin in Thurn,San Martino in Badia/St. Martin in Thurn,"021082,Comune di San Martino in Badia,San Martino in Badia,St. Martin in Thurn",46.68153,11.89809,A,ADM3,IT,,17,BZ,021082,,1767,,1136,Europe/Rome,2020-06-07,San Martino in Badia/St. Martin in Thurn
6536018,Tirolo/Tirol,Tirolo/Tirol,"021101,Comune di Tirolo,Tirol,Tirolis,Tirolo,Tyrola,di luo luo,tiroro,tyrwl  tyrwl jnwby,Τιρόλο,Тироло,Тырола,Тіроло,Տիրոլո,تیرول، تیرول جنوبی,ティローロ,蒂罗洛",46.69102,11.15427,A,ADM3,IT,,17,BZ,021101,,2450,,600,Europe/Rome,2020-06-07,Tirolo/Tirol
6536019,Valle Aurina/Ahrntal,Valle Aurina/Ahrntal,"021108,Ahrntal,Ahrntoul,Comune di Valle Aurina,Vale Aurina,Vale-Auryna,Valle Aurina,Valle Aurina - Ahrntal,Valle-Aurina,Vallis Aurina,ahrntal,wa lai ya wu li na,Вале Аурина,Вале-Аўрына,Валле-Аурина,Վալե Աուրինա,اهرنتال,ヴァッレ・アウリーナ,瓦莱亚乌里纳",46.99623,11.97988,A,ADM3,IT,,17,BZ,021108,,6022,,1062,Europe/Rome,2020-06-07,Valle Aurina/Ahrntal
6536020,Valle di Casies/Gsies,Valle di Casies/Gsies,"021109,Comune di Valle di Casies,Gsies,Valle di Casies",46.76833,12.17939,A,ADM3,IT,,17,BZ,021109,,2320,,1206,Europe/Rome,2020-06-07,Valle di Casies/Gsies
6536021,Verano/Vöran,Verano/Voeran,"021112,Comune di Verano,Verano,Voeran,Vöran",46.60472,11.22607,A,ADM3,IT,,17,BZ,021112,,959,,1202,Europe/Rome,2020-06-07,Verano/Vöran
6536022,Villandro/Villanders,Villandro/Villanders,"021114,Comune di Villandro,Villanders,Villandro",46.63082,11.53708,A,ADM3,IT,,17,BZ,021114,,1875,,903,Europe/Rome,2020-06-07,Villandro/Villanders
6536023,Fondachelli-Fantina,Fondachelli-Fantina,"083023,Comune di Fondachelli-Fantina,Fondachelli-Fantina",37.98476,15.17519,A,ADM3,IT,,15,ME,083023,,1078,,634,Europe/Rome,2020-06-07,Fondachelli-Fantina
6536024,Brovello-Carpugnino,Brovello-Carpugnino,"103013,Brovello-Carpugnino,Comune di Brovello-Carpugnino",45.84247,8.53173,A,ADM3,IT,,12,VB,103013,,711,,450,Europe/Rome,2020-06-07,Brovello-Carpugnino
6536025,Calasca-Castiglione,Calasca-Castiglione,"103014,Calasca e Castioj,Calasca-Castellio Oscelensium,Calasca-Castiglione,Calasca-Castiun,Comune di Calasca-Castiglione,Kalaska Kastilione,Kalaska-Kastil'jone,Kalaska-Kastil'one,Kalaska-Kastyl'joneh,ka la si ka-ka si di liao nei,karasuka=kasutirione,Каласка-Кастильоне,Каласка-Кастыльёнэ,Каласка-Кастільйоне,Կալասկա Կաստիլիոնե,カラスカ＝カスティリオーネ,卡拉斯卡-卡斯蒂廖内",46.00337,8.16901,A,ADM3,IT,,12,VB,103014,,611,,638,Europe/Rome,2020-06-07,Calasca-Castiglione
6536027,Cugliate-Fabiasco,Cugliate-Fabiasco,"012059,Comune di Cugliate-Fabiasco,Cugliate-Fabiasco",45.94568,8.81863,A,ADM3,IT,,09,VA,012059,,3079,,490,Europe/Rome,2020-06-07,Cugliate-Fabiasco
6536029,Scena/Schenna,Scena/Schenna,"021087,Comune di Scena,Scena,Schenna,Schennanum,Schoennen,Schönnen,Sena,Shena,shena,shna,xie na,Шена,Շենա,شنا,シェーナ,谢纳",46.69012,11.18627,A,ADM3,IT,,17,BZ,021087,,2912,,574,Europe/Rome,2020-06-07,Scena/Schenna
6536030,Pont-Canavese,Pont-Canavese,"001199,Comune di Pont-Canavese,Pont Canaveis,Pont Canavese,Pont Canavèis,Pont Kanaveze,Pont-Canavese,Pont-Kanaveze,Pont-Kanavezeh,Pontes,peng te-ka na wei sai,ponto=kanavueze,Понт-Канавезе,Понт-Канавезэ,Պոնտ Կանավեզե,ポント＝カナヴェーゼ,蓬特-卡纳韦塞",45.42285,7.59621,A,ADM3,IT,,12,TO,001199,,3290,,465,Europe/Rome,2020-06-07,Pont-Canavese
6536031,Borgo Valsugana,Borgo Valsugana,"022022,Al Borgo,Al Bórgo,Borgo Valsugana,Burg im Suganertal,Comune di Borgo Valsugana",46.05141,11.45439,A,ADM3,IT,,17,TN,022022,,6953,,392,Europe/Rome,2020-06-07,Borgo Valsugana
6536032,Canischio,Canischio,"001052,Canischio,Comune di Canischio",45.37485,7.59621,A,ADM3,IT,,12,TO,001052,,277,,668,Europe/Rome,2020-06-07,Canischio
6536033,Manta,Manta,"004116,Comune di Manta,La Manta,Manta,manta,Манта,Մանտա,マンタ,만타",44.61583,7.48703,A,ADM3,IT,,12,CN,004116,,3786,,398,Europe/Rome,2020-06-07,Manta
6536034,Martiniana Po,Martiniana Po,"004121,Comune di Martiniana Po,Marcinijana-Po,Martinhana,Martinian-a,Martiniana,Martiniana Po,Martiniana-Po,ma er di ni ya na bo,Мартиниана-По,Мартініана-По,Марцініяна-По,Մարտինիանա Պո,マルティニアーナ・ポー,马尔蒂尼亚纳波",44.62723,7.36282,A,ADM3,IT,,12,CN,004121,,747,,459,Europe/Rome,2020-06-07,Martiniana Po
6536035,Monforte d'Alba,Monforte d'Alba,"004132,Comune di Monforte d'Alba,Monforte d'Alba",44.58244,7.96964,A,ADM3,IT,,12,CN,004132,,1995,,479,Europe/Rome,2020-06-07,Monforte d'Alba
6536036,Leini,Leini,"001130,Comune di Leini,Comune di Leinì,Laniacum,Leini,Leinì,Lejni,Leyni,lai yi ni,reini,Лейни,Лейні,Леїні,Լեյնի,レイニ,莱伊尼",45.18275,7.71422,A,ADM3,IT,,12,TO,001130,,16456,,250,Europe/Rome,2020-06-07,Leini
6536037,Roccavione,Roccavione,"004192,Comune di Roccavione,Roccavione",44.31463,7.48243,A,ADM3,IT,,12,CN,004192,,2653,,653,Europe/Rome,2020-06-07,Roccavione
6536038,Salmour,Salmour,"004202,Comune di Salmour,Sal'maur,Sal'mour,Salmour,Sarmatorium,sa er mu er,sarumuru,Сальмаур,Сальмоур,Սալմոուր,サルムール,萨尔穆尔",44.57804,7.79183,A,ADM3,IT,,12,CN,004202,,724,,391,Europe/Rome,2020-06-07,Salmour
6536039,San Damiano Macra,San Damiano Macra,"004207,Comune di San Damiano Macra,San Damiano Macra",44.48873,7.25842,A,ADM3,IT,,12,CN,004207,,408,,749,Europe/Rome,2020-06-07,San Damiano Macra
6536040,Scarnafigi,Scarnafigi,"004217,Comune di Scarnafigi,Scarnafigi,Scarnafis,Scarnafixium,Skarnafidzhi,Skarnafidzhy,Skarnafiji,si ka er na fei ji,sukarunafiji,Скарнафиджи,Скарнафіджы,Скарнафіджі,Սկարնաֆիջի,スカルナフィージ,斯卡尔纳菲吉",44.67874,7.56593,A,ADM3,IT,,12,CN,004217,,2138,,298,Europe/Rome,2020-06-07,Scarnafigi
6536041,Canelli,Canelli,"005017,Canelli,Comune di Canelli",44.72154,8.29244,A,ADM3,IT,,12,AT,005017,,10411,,153,Europe/Rome,2020-06-07,Canelli
6536042,Casorzo,Casorzo,"005020,Casors,Casortium,Casorzo,Comune di Casorzo,Kazorca,Kazorco,ka suo er zuo,kaswrzw,kazorutsuo,Казорца,Казорцо,Կազորցո,كاسورزو,カゾルツォ,卡索尔佐",45.02245,8.33704,A,ADM3,IT,,12,AT,005020,,618,,261,Europe/Rome,2020-06-07,Casorzo
6536043,Cassinasco,Cassinasco,"005021,Cassinasch,Cassinasco,Cassinascum,Comune di Cassinasco,Kasinaska,Kasinasko,Kassinasko,ka xi na si ke,kasshinasuko,kasynaskw,Касинаско,Кассинаско,Кассінаско,Касінаска,Կասինասկո,كاسيناسكو,カッシナスコ,卡西纳斯科",44.68914,8.30264,A,ADM3,IT,,12,AT,005021,,607,,417,Europe/Rome,2020-06-07,Cassinasco
6536044,Castell'Alfero,Castell'Alfero,"005025,Castell'Alfero,Comune di Castell'Alfero",44.98125,8.21054,A,ADM3,IT,,12,AT,005025,,2671,,208,Europe/Rome,2020-06-07,Castell'Alfero
6536045,San Maurizio Canavese,San Maurizio Canavese,"001248,Comune di San Maurizio Canavese,San Maurizio Canavese",45.21705,7.63052,A,ADM3,IT,,12,TO,001248,,10314,,317,Europe/Rome,2020-06-07,San Maurizio Canavese
6536046,Cisterna d'Asti,Cisterna d'Asti,"005040,Cisterna d'Asti,Comune di Cisterna d'Asti",44.82614,8.00093,A,ADM3,IT,,12,AT,005040,,1224,,321,Europe/Rome,2020-06-07,Cisterna d'Asti
6536047,Cocconato,Cocconato,"005042,Cocconato,Cocconatum,Cocona,Coconà,Comune di Cocconato,Kakanata,Kokkonato,Kokonato,ke ke na tuo,kokkonato,kwkwnatw,Каканата,Кокконато,Коконато,Կոքոնատո,كوكوناتو,コッコナート,科科纳托",45.08805,8.03943,A,ADM3,IT,,12,AT,005042,,1444,,466,Europe/Rome,2020-06-07,Cocconato
6536048,Cossombrato,Cossombrato,"005049,Comune di Cossombrato,Cossombra,Cossombrato,Cossombrà,Cossumbratum,Kasambrata,Kosombrato,Kossombrato,ke song bu la tuo,kossonburato,kwswmbratw,Касамбрата,Косомбрато,Коссомбрато,Կոսոմբրատո,كوسومبراتو,コッソンブラート,科松布拉托",44.99295,8.13613,A,ADM3,IT,,12,AT,005049,,508,,266,Europe/Rome,2020-06-07,Cossombrato
6536049,Cunico,Cunico,"005051,Comune di Cunico,Cuni,Cunico,Cunicum,Kunika,Kuniko,ku ni ke,kuniko,kwnykw,Кунико,Куніка,Куніко,Կունիկո,كونيكو,クーニコ,库尼科",45.03995,8.09673,A,ADM3,IT,,12,AT,005051,,483,,238,Europe/Rome,2020-06-07,Cunico
6536050,Moncalvo,Moncalvo,"005069,Comune di Moncalvo,Moncalvo",45.05025,8.26524,A,ADM3,IT,,12,AT,005069,,2861,,298,Europe/Rome,2020-06-07,Moncalvo
6536051,Villar Focchiardo,Villar Focchiardo,"001305,Comune di Villar Focchiardo,El Vile,Vilar-Fakjarda,Villar Focchiardo,Villar-Fokk'jardo,Villar-Fokkjardo,Villare Fulcardi,wei la er fu ji ya er duo,Ël Vilé,Виллар-Фоккьярдо,Вілар-Факярда,Віллар-Фоккярдо,Վիլար Ֆոքիարդո,ヴィッラール・フォッキアルド,维拉尔福基亚尔多",45.11244,7.23841,A,ADM3,IT,,12,TO,001305,,1967,,398,Europe/Rome,2020-06-07,Villar Focchiardo
6536052,Mongiardino Ligure,Mongiardino Ligure,"006100,Comune di Mongiardino Ligure,Mandzhardzina-Ligureh,Mondzhardino-Ligure,Mongiardin,Mongiardino Ligure,Monjardino Ligure,Mons Gardinius Novensium,meng gu er di nuo li gu lei,mwngharydnw lyghwry,Манджардзіна-Лігурэ,Монджардино-Лигуре,Монджардіно-Лігуре,Մոնջարդինո Լիգուրե,مونغاريدنو ليغوري,モンジャルディーノ・リーグレ,蒙贾尔迪诺利古雷",44.64,9.0618,A,ADM3,IT,,12,AL,006100,,156,,616,Europe/Rome,2020-06-07,Mongiardino Ligure
6536053,Roasio,Roasio,"002116,Comune di Roasio,Roasio",45.60457,8.28482,A,ADM3,IT,,12,VC,002116,,2336,,287,Europe/Rome,2020-06-07,Roasio
6536054,Casale Monferrato,Casale Monferrato,"006039,Casal Monfra,Casal Monfrà,Casale Monferrato,Casalis,Comune di Casale Monferrato,Kazale Monferatas,Kazale Monferato,Kazale-Monferrato,ka sa lai meng fei la tuo,kazaly mwnfyratw,Казале Монферато,Казале-Монферрато,קזאלה מונפראטו,كازالي مونفيراتو,カザーレ・モンフェッラート,卡萨莱蒙费拉托",45.13336,8.45714,A,ADM3,IT,,12,AL,006039,,33725,,118,Europe/Rome,2020-06-07,Casale Monferrato
6536055,Casalnoceto,Casalnoceto,"006040,Ar Casa,Ar Casà,Casale ad Nucetum,Casalnoceto,Comune di Casalnoceto,El Casal Nose,Kazal'nachehta,Kazal'nocheto,Kazalnocheto,ka sa er nuo qie tuo,kazalnwchtw,kazalnwtshtw,kazarunocheto,Ël Casal Nosé,Казалночето,Казальначэта,Казальночето,Կազալնոչետո,كازالنوتشتو,کازالنوچتو,カザルノチェート,卡萨尔诺切托",44.91306,8.98215,A,ADM3,IT,,12,AL,006040,,978,,162,Europe/Rome,2020-06-07,Casalnoceto
6536056,Casasco,Casasco,"006041,Casasch,Casasco,Casascum Derthonensium,Comune di Casasco,Kazaska,Kazasko,ka sa si ke,kasaskw,kazaskw,kazasuko,Казаска,Казаско,Կազասկո,كازاسكو,کاساسکو,カザスコ,卡萨斯科",44.82845,9.00586,A,ADM3,IT,,12,AL,006041,,132,,388,Europe/Rome,2020-06-07,Casasco
6536057,Castelnuovo Bormida,Castelnuovo Bormida,"006052,Castelneuv an Bormia,Castelnuovo Bormida,Castrum Novum ad Burmiam,Comune di Castelnuovo Bormida,Kastehl'nuova-Barmida,Kastel'nuovo-Bormida,Kastelnuovo Bormida,ka si tai er nuo wo bo er mi da,kastlnwaww bwrmyda,kastlnwfw bwrmyda,Кастелнуово Бормида,Кастельнуово-Бормида,Кастельнуово-Борміда,Кастэльнуова-Барміда,Կաստելնուովո Բորմիդա,كاستلنوفو بورميدا,کاستلنوآوو بورمیدا,カステルヌオーヴォ・ボルミダ,卡斯泰尔诺沃博尔米达",44.74265,8.54855,A,ADM3,IT,,12,AL,006052,,700,,125,Europe/Rome,2020-06-07,Castelnuovo Bormida
6536058,Cereseto,Cereseto,"006057,Cereseto,Comune di Cereseto",45.08765,8.31993,A,ADM3,IT,,12,AL,006057,,403,,214,Europe/Rome,2020-06-07,Cereseto
6536059,Ottiglio,Ottiglio,"006120,Atyl'jo,Auctilium,Autij,Comune di Ottiglio,Ottiglio,Ottil'jo,Ottil'o,ao di liao,awtylyw,ottirio,Атыльё,Оттильо,Оттільйо,Օթիլո,أوتيليو,オッティーリオ,奥蒂廖",45.05425,8.33854,A,ADM3,IT,,12,AL,006120,,614,,252,Europe/Rome,2020-06-07,Ottiglio
6536060,Cartignano,Cartignano,"004044,Cartignan,Cartignano,Cartinhan,Cartinianum,Comune di Cartignano,Karcin'jana,Kartin'jano,Kartinano,Kartinyano,ka er di ni ya nuo,kartygnanw,karutinyano,Картиньяно,Картињано,Картіньяно,Карціньяна,Կարտինյանո,کارتیگنانو,カルティニャーノ,卡尔蒂尼亚诺",44.47833,7.28573,A,ADM3,IT,,12,CN,004044,,174,,685,Europe/Rome,2020-06-07,Cartignano
6536061,Pollein,Pollein,"007049,Comune di Pollein,Palen,Polen,Pollein,Pollen,Pollinum,bo lai yi en,Пален,Полен,Поллен,Պոլեն,波莱伊恩",45.72726,7.3522,A,ADM3,IT,,19,AO,007049,,1539,,583,Europe/Rome,2020-06-07,Pollein
6536062,Verrès,Verres,"007073,Comune di Verres,Comune di Verrès,Verres,Verrès",45.66656,7.68911,A,ADM3,IT,,19,AO,007073,,2633,,382,Europe/Rome,2020-06-07,Verrès
6536063,Airole,Airole,"008001,Airole,Comune di Airole",43.87092,7.55414,A,ADM3,IT,,08,IM,008001,,392,,147,Europe/Rome,2020-06-07,Airole
6536064,Apricale,Apricale,"008002,Apricale,Comune di Apricale",43.88062,7.65934,A,ADM3,IT,,08,IM,008002,,624,,246,Europe/Rome,2020-06-07,Apricale
6536065,Aurigo,Aurigo,"008005,Aurigo,Comune di Aurigo",43.98272,7.92245,A,ADM3,IT,,08,IM,008005,,322,,428,Europe/Rome,2020-06-07,Aurigo
6536066,Badalucco,Badalucco,"008006,Badalucco,Comune di Badalucco",43.91732,7.84575,A,ADM3,IT,,08,IM,008006,,1114,,188,Europe/Rome,2020-06-07,Badalucco
6536067,Crissolo,Crissolo,"004077,Comune di Crissolo,Crissolo",44.69953,7.15602,A,ADM3,IT,,12,CN,004077,,165,,1343,Europe/Rome,2020-06-07,Crissolo
6536068,Elva,Elva,"004083,Comune di Elva,Ehl'va,El'va,Elva,Helva,ai er wa,eruvua,Ельва,Эльва,Էլվա,エルヴァ,埃尔瓦",44.54033,7.09032,A,ADM3,IT,,12,CN,004083,,94,,1642,Europe/Rome,2014-01-02,Elva
6536069,Monchiero,Monchiero,"004129,Comune di Monchiero,Mankera,Monce,Monchiero,Moncé,Monk'ero,Monkero,Mons Clarus,meng ji ye luo,monkiero,Манкера,Монкьеро,Монкєро,Մոնքիերո,モンキエーロ,蒙基耶罗",44.57054,7.92024,A,ADM3,IT,,12,CN,004129,,578,,259,Europe/Rome,2020-06-07,Monchiero
6536070,Chiusanico,Chiusanico,"008019,Chiusanico,Comune di Chiusanico",43.97192,7.99335,A,ADM3,IT,,08,IM,008019,,580,,438,Europe/Rome,2020-06-07,Chiusanico
6536071,Cipressa,Cipressa,"008021,Cipressa,Comune di Cipressa",43.85292,7.93225,A,ADM3,IT,,08,IM,008021,,1253,,261,Europe/Rome,2020-06-07,Cipressa
6536072,Dolceacqua,Dolceacqua,"008029,Comune di Dolceacqua,Dolceacqua",43.85172,7.62264,A,ADM3,IT,,08,IM,008029,,2082,,74,Europe/Rome,2020-06-07,Dolceacqua
6536073,Isolabona,Isolabona,"008032,Comune di Isolabona,Isolabona",43.87962,7.63974,A,ADM3,IT,,08,IM,008032,,675,,103,Europe/Rome,2020-06-07,Isolabona
6536075,Montegrosso Pian Latte,Montegrosso Pian Latte,"008037,Comune di Montegrosso Pian Latte,Montegrosso Pian Latte",44.06672,7.81704,A,ADM3,IT,,08,IM,008037,,123,,736,Europe/Rome,2020-06-07,Montegrosso Pian Latte
6536076,Perinaldo,Perinaldo,"008040,Comune di Perinaldo,Perinaldo",43.86702,7.66954,A,ADM3,IT,,08,IM,008040,,849,,536,Europe/Rome,2020-06-07,Perinaldo
6536077,Pigna,Pigna,"008043,Comune di Pigna,Pigna,Pin'ja,Pinia,Pinja,Pinya,pinya,Пинья,Пиня,Пінья,Պինյա,ピーニャ",43.93222,7.66074,A,ADM3,IT,,08,IM,008043,,795,,250,Europe/Rome,2020-06-07,Pigna
6536078,Pompeiana,Pompeiana,"008044,Comune di Pompeiana,Pompeiana",43.85372,7.88985,A,ADM3,IT,,08,IM,008044,,854,,161,Europe/Rome,2020-06-07,Pompeiana
6536079,Rocchetta Nervina,Rocchetta Nervina,"008051,Comune di Rocchetta Nervina,Rocchetta Nervina",43.89062,7.59964,A,ADM3,IT,,08,IM,008051,,291,,229,Europe/Rome,2020-06-07,Rocchetta Nervina
6536080,Cairo Montenotte,Cairo Montenotte,"009015,Cairo Montenotte,Comune di Cairo Montenotte",44.40314,8.27455,A,ADM3,IT,,08,SV,009015,,13005,,322,Europe/Rome,2020-06-07,Cairo Montenotte
6536081,Calizzano,Calizzano,"009017,Calizzano,Comune di Calizzano",44.23453,8.12015,A,ADM3,IT,,08,SV,009017,,1455,,649,Europe/Rome,2020-06-07,Calizzano
6536082,Erli,Erli,"009028,Comune di Erli,Erli",44.13753,8.10315,A,ADM3,IT,,08,SV,009028,,227,,314,Europe/Rome,2020-06-07,Erli
6536083,Loano,Loano,"009034,Comune di Loano,Loano",44.13303,8.25125,A,ADM3,IT,,08,SV,009034,,11108,,25,Europe/Rome,2020-06-07,Loano
6536084,Fascia,Fascia,"010022,Comune di Fascia,Fasa,Fascia,Fasha,Fashija,fa xia,fasha,Фаша,Фашия,Фашія,Ֆաշա,ファーシャ,法夏",44.58255,9.22136,A,ADM3,IT,,08,GE,010022,,65,,1113,Europe/Rome,2020-06-07,Fascia
6536085,Santa Vittoria d'Alba,Santa Vittoria d'Alba,"004212,Comune di Santa Vittoria d'Alba,Santa Vittoria d'Alba",44.69864,7.93733,A,ADM3,IT,,12,CN,004212,,2870,,243,Europe/Rome,2020-06-07,Santa Vittoria d'Alba
6536086,Sommariva Perno,Sommariva Perno,"004223,Comune di Sommariva Perno,Sommariva Perno",44.74564,7.90063,A,ADM3,IT,,12,CN,004223,,2769,,372,Europe/Rome,2020-06-07,Sommariva Perno
6536087,Millesimo,Millesimo,"009038,Comune di Millesimo,Millesimo",44.36754,8.20175,A,ADM3,IT,,08,SV,009038,,3349,,422,Europe/Rome,2020-06-07,Millesimo
6536088,Nasino,Nasino,"009041,Comune di Nasino,Nasino",44.11363,8.03205,A,ADM3,IT,,08,SV,009041,,189,,304,Europe/Rome,2020-06-07,Nasino
6536089,Varazze,Varazze,"009065,Comune di Varazze,Varazze",44.35954,8.57405,A,ADM3,IT,,08,SV,009065,,12993,,12,Europe/Rome,2020-06-07,Varazze
6536090,Bargagli,Bargagli,"010003,Bargagli,Comune di Bargagli",44.44725,9.09176,A,ADM3,IT,,08,GE,010003,,2659,,480,Europe/Rome,2020-06-07,Bargagli
6536091,Busalla,Busalla,"010006,Busalla,Comune di Busalla",44.57325,8.95546,A,ADM3,IT,,08,GE,010006,,5490,,367,Europe/Rome,2020-06-07,Busalla
6536092,Chiavari,Chiavari,"010015,Chiavari,Comune di Chiavari",44.32014,9.32197,A,ADM3,IT,,08,GE,010015,,27537,,6,Europe/Rome,2020-06-07,Chiavari
6536093,Crocefieschi,Crocefieschi,"010020,Comune di Crocefieschi,Crocefieschi",44.57975,9.02396,A,ADM3,IT,,08,GE,010020,,527,,772,Europe/Rome,2020-06-07,Crocefieschi
6536094,Favale di Malvaro,Favale di Malvaro,"010023,Comune di Favale di Malvaro,Favale di Malvaro",44.45225,9.25897,A,ADM3,IT,,08,GE,010023,,459,,290,Europe/Rome,2020-06-07,Favale di Malvaro
6536095,Montegrosso d'Asti,Montegrosso d'Asti,"005076,Comune di Montegrosso d'Asti,Montegrosso d'Asti",44.82065,8.23754,A,ADM3,IT,,12,AT,005076,,2306,,172,Europe/Rome,2020-06-07,Montegrosso d'Asti
6536096,Isola del Cantone,Isola del Cantone,"010027,Comune di Isola del Cantone,Isola del Cantone",44.64565,8.95756,A,ADM3,IT,,08,GE,010027,,1477,,291,Europe/Rome,2020-06-07,Isola del Cantone
6536097,Moneglia,Moneglia,"010037,Comune di Moneglia,Moneglia",44.23804,9.49348,A,ADM3,IT,,08,GE,010037,,2763,,12,Europe/Rome,2020-06-07,Moneglia
6536098,Montoggio,Montoggio,"010039,Comune di Montoggio,Montoggio",44.51745,9.04816,A,ADM3,IT,,08,GE,010039,,2005,,457,Europe/Rome,2020-06-07,Montoggio
6536099,Neirone,Neirone,"010041,Comune di Neirone,Neirone",44.45545,9.19167,A,ADM3,IT,,08,GE,010041,,857,,421,Europe/Rome,2020-06-07,Neirone
6536100,Propata,Propata,"010045,Comune di Propata,Propata",44.56565,9.18566,A,ADM3,IT,,08,GE,010045,,141,,1004,Europe/Rome,2020-06-07,Propata
6536101,Rezzoaglio,Rezzoaglio,"010048,Comune di Rezzoaglio,Rezzoaglio",44.52625,9.38827,A,ADM3,IT,,08,GE,010048,,951,,721,Europe/Rome,2020-06-07,Rezzoaglio
6536102,Sori,Sori,"010060,Comune di Sori,Sori",44.36984,9.10697,A,ADM3,IT,,08,GE,010060,,4033,,49,Europe/Rome,2020-06-07,Sori
6536103,Uscio,Uscio,"010064,Comune di Uscio,Uscio",44.41334,9.16257,A,ADM3,IT,,08,GE,010064,,2165,,387,Europe/Rome,2020-06-07,Uscio
6536104,Zoagli,Zoagli,"010067,Comune di Zoagli,Zoagli",44.33664,9.27097,A,ADM3,IT,,08,GE,010067,,2424,,73,Europe/Rome,2020-06-07,Zoagli
6536105,Vizzola Ticino,Vizzola Ticino,"012140,Comune di Vizzola Ticino,Vizzola Ticino",45.6317,8.6865,A,ADM3,IT,,09,VA,012140,,576,,205,Europe/Rome,2014-01-02,Vizzola Ticino
6536106,Mornago,Mornago,"012106,Comune di Mornago,Mornago",45.74577,8.75123,A,ADM3,IT,,09,VA,012106,,5011,,287,Europe/Rome,2020-06-07,Mornago
6536107,Origgio,Origgio,"012109,Comune di Origgio,Origgio",45.59617,9.01754,A,ADM3,IT,,09,VA,012109,,7880,,192,Europe/Rome,2020-06-07,Origgio
6536109,Brunate,Brunate,"013032,Brunate,Comune di Brunate",45.82098,9.09434,A,ADM3,IT,,09,CO,013032,,1710,,672,Europe/Rome,2020-06-07,Brunate
6536110,Caglio,Caglio,"013037,Caglio,Caj,Chalium,Comune di Caglio,Kal'jo,Kal'o,Kalio,ka liao,kario,Кальйо,Кальо,Կալիո,カーリオ,卡廖",45.87238,9.23884,A,ADM3,IT,,09,CO,013037,,483,,786,Europe/Rome,2020-06-07,Caglio
6536112,Issogne,Issogne,"007037,Comune di Issogne,Issogne",45.65496,7.68571,A,ADM3,IT,,19,AO,007037,,1373,,380,Europe/Rome,2020-06-07,Issogne
6536113,Mariano Comense,Mariano Comense,"013143,Comune di Mariano Comense,Mariano Comense",45.69208,9.17974,A,ADM3,IT,,09,CO,013143,,25191,,250,Europe/Rome,2020-06-07,Mariano Comense
6536114,Musso,Musso,"013160,Comune di Musso,Musa,Muso,Muss,Mussium,Musso,mu suo,muso,musso,Муса,Муссо,Մուսո,ムッソ,穆索,무소",46.11119,9.27464,A,ADM3,IT,,09,CO,013160,,972,,242,Europe/Rome,2020-06-07,Musso
6536115,Pornassio,Pornassio,"008046,Comune di Pornassio,Pornassio",44.07053,7.86954,A,ADM3,IT,,08,IM,008046,,703,,677,Europe/Rome,2020-06-07,Pornassio
6536116,Pusiano,Pusiano,"013193,Comune di Pusiano,Pusian,Pusiano,Pusillianum,Puziano,Puzijana,pu xia nuo,pujiano,Пузиано,Пузіано,Пузіяна,Պուզիանո,プジアーノ,普夏诺",45.81388,9.28184,A,ADM3,IT,,09,CO,013193,,1372,,270,Europe/Rome,2020-06-07,Pusiano
6536117,Rezzago,Rezzago,"013195,Comune di Rezzago,Rezzago",45.86678,9.24974,A,ADM3,IT,,09,CO,013195,,295,,642,Europe/Rome,2020-06-07,Rezzago
6536118,Rovellasca,Rovellasca,"013201,Comune di Rovellasca,Rovellasca",45.66447,9.05114,A,ADM3,IT,,09,CO,013201,,7804,,247,Europe/Rome,2020-06-07,Rovellasca
6536119,Madesimo,Madesimo,"014035,Comune di Madesimo,Madesimo",46.4394,9.35953,A,ADM3,IT,,09,SO,014035,,519,,1550,Europe/Rome,2020-06-07,Madesimo
6536120,Fagnano Olona,Fagnano Olona,"012067,Comune di Fagnano Olona,Fagnano Olona",45.66977,8.85994,A,ADM3,IT,,09,VA,012067,,12498,,263,Europe/Rome,2020-06-07,Fagnano Olona
6536121,Berbenno di Valtellina,Berbenno di Valtellina,"014007,Berbenno di Valtellina,Comune di Berbenno di Valtellina",46.16779,9.74515,A,ADM3,IT,,09,SO,014007,,4130,,364,Europe/Rome,2020-06-07,Berbenno di Valtellina
6536122,Bormio,Bormio,"014009,Bormio,Comune di Bormio",46.46841,10.37205,A,ADM3,IT,,09,SO,014009,,4179,,1211,Europe/Rome,2020-06-07,Bormio
6536123,Buglio in Monte,Buglio in Monte,"014010,Buglio in Monte,Comune di Buglio in Monte",46.18269,9.67484,A,ADM3,IT,,09,SO,014010,,2011,,568,Europe/Rome,2020-06-07,Buglio in Monte
6536124,Caspoggio,Caspoggio,"014013,Caspoggio,Comune di Caspoggio",46.2635,9.86285,A,ADM3,IT,,09,SO,014013,,1374,,1078,Europe/Rome,2020-06-07,Caspoggio
6536125,Chiuro,Chiuro,"014020,Chiuro,Comune di Chiuro",46.165,9.98095,A,ADM3,IT,,09,SO,014020,,2543,,389,Europe/Rome,2020-06-07,Chiuro
6536126,Grosotto,Grosotto,"014034,Comune di Grosotto,Grosotto",46.283,10.25976,A,ADM3,IT,,09,SO,014034,,1644,,607,Europe/Rome,2020-06-07,Grosotto
6536127,Pedesina,Pedesina,"014047,Comune di Pedesina,Pedehzina,Pedesina,Pedezina,pdsyna,pedejina,pei de xi na,Педезина,Педезіна,Педэзіна,Պեդեզինա,پدسینا,ペデジーナ,佩德西纳",46.08189,9.54944,A,ADM3,IT,,09,SO,014047,,38,,1014,Europe/Rome,2020-06-07,Pedesina
6536128,Piantedo,Piantedo,"014048,Comune di Piantedo,P'jantedo,Piantedo,Piantee,Pjantedo,Pjantehda,Plantedium,pi ya en tai duo,piantedo,pyantdw,Пиантедо,Пьянтедо,Пянтедо,Пянтэда,Պիանտեդո,پیانتدو,ピアンテード,皮亚恩泰多",46.13419,9.42934,A,ADM3,IT,,09,SO,014048,,1390,,214,Europe/Rome,2020-06-07,Piantedo
6536129,Torre di Santa Maria,Torre di Santa Maria,"014067,Comune di Torre di Santa Maria,La Tur,Tore di Santa Maria,Tore di Santa Marija,Toreh-dzi-Santa-Maryja,Torre di Santa Maria,Torre-di-Santa-Marija,Turris Sanctae Mariae,tuo lei sheng ma li ya,Торе ди Санта Мария,Торре-ди-Санта-Мария,Торре-ді-Санта-Марія,Торэ-дзі-Санта-Марыя,Տորե դի Սանտա Մարիա,トッレ・ディ・サンタ・マリーア,托雷圣马里亚",46.2336,9.85155,A,ADM3,IT,,09,SO,014067,,749,,792,Europe/Rome,2020-06-07,Torre di Santa Maria
6536130,Valganna,Valganna,"012131,Comune di Valganna,Valganna",45.90228,8.82333,A,ADM3,IT,,09,VA,012131,,1599,,461,Europe/Rome,2020-06-07,Valganna
6536131,Campione d'Italia,Campione d'Italia,"013040,Campione d'Italia,Comune di Campione d'Italia",45.96808,8.97103,A,ADM3,IT,,09,CO,013040,,1961,,279,Europe/Rome,2020-06-07,Campione d'Italia
6536132,Albiate,Albiate,"108003,Albiate,Comune di Albiate",45.65708,9.25615,A,ADM3,IT,,09,MB,108003,,6375,,232,Europe/Rome,2020-06-07,Albiate
6536133,Arconate,Arconate,"015007,Arconate,Comune di Arconate",45.54197,8.84854,A,ADM3,IT,,09,MI,015007,,6628,,178,Europe/Rome,2020-06-07,Arconate
6536134,Barlassina,Barlassina,"108005,Barlassina,Comune di Barlassina",45.65427,9.12974,A,ADM3,IT,,09,MB,108005,,7019,,228,Europe/Rome,2020-06-07,Barlassina
6536135,Besate,Besate,"015022,Besate,Comune di Besate",45.31296,8.96964,A,ADM3,IT,,09,MI,015022,,2060,,101,Europe/Rome,2020-06-07,Besate
6536136,Albaredo per San Marco,Albaredo per San Marco,"014001,Albaredo per San Marco,Comune di Albaredo per San Marco",46.10349,9.59004,A,ADM3,IT,,09,SO,014001,,291,,899,Europe/Rome,2020-06-07,Albaredo per San Marco
6536137,Boffalora sopra Ticino,Boffalora sopra Ticino,"015026,Boffalora sopra Ticino,Comune di Boffalora sopra Ticino",45.46787,8.83854,A,ADM3,IT,,09,MI,015026,,4131,,139,Europe/Rome,2020-06-07,Boffalora sopra Ticino
6536138,Marcallo con Casone,Marcallo con Casone,"015134,Comune di Marcallo con Casone,Marcallo con Casone",45.48327,8.87194,A,ADM3,IT,,09,MI,015134,,6158,,147,Europe/Rome,2020-06-07,Marcallo con Casone
6536139,Rescaldina,Rescaldina,"015181,Comune di Rescaldina,Rescaldina",45.61647,8.95384,A,ADM3,IT,,09,MI,015181,,14211,,221,Europe/Rome,2020-06-07,Rescaldina
6536140,Usmate Velate,Usmate Velate,"108044,Comune di Usmate Velate,Usmate Velate",45.64798,9.36245,A,ADM3,IT,,09,MB,108044,,10325,,221,Europe/Rome,2020-06-07,Usmate Velate
6536141,Capizzone,Capizzone,"016050,Capizzone,Comune di Capizzone",45.78448,9.56775,A,ADM3,IT,,09,BG,016050,,1241,,445,Europe/Rome,2020-06-07,Capizzone
6536142,Caprino Bergamasco,Caprino Bergamasco,"016052,Caprino Bergamasco,Comune di Caprino Bergamasco",45.74528,9.48175,A,ADM3,IT,,09,BG,016052,,3072,,319,Europe/Rome,2020-06-07,Caprino Bergamasco
6536143,Cerete,Cerete,"016071,Cerete,Comune di Cerete",45.86729,9.99466,A,ADM3,IT,,09,BG,016071,,1605,,600,Europe/Rome,2020-06-07,Cerete
6536144,Mezzoldo,Mezzoldo,"016134,Comune di Mezzoldo,Mezzoldo",46.01259,9.66555,A,ADM3,IT,,09,BG,016134,,161,,855,Europe/Rome,2020-06-07,Mezzoldo
6536145,Misano di Gera d'Adda,Misano di Gera d'Adda,"016135,Comune di Misano di Gera d'Adda,Misano di Gera d'Adda",45.47098,9.62246,A,ADM3,IT,,09,BG,016135,,2991,,105,Europe/Rome,2020-06-07,Misano di Gera d'Adda
6536146,Palosco,Palosco,"016157,Comune di Palosco,Palosco",45.58928,9.83646,A,ADM3,IT,,09,BG,016157,,5756,,157,Europe/Rome,2020-06-07,Palosco
6536147,Parzanica,Parzanica,"016159,Comune di Parzanica,Parzanica",45.73848,10.03406,A,ADM3,IT,,09,BG,016159,,352,,759,Europe/Rome,2020-06-07,Parzanica
6536148,Ponte Nossa,Ponte Nossa,"016168,Comune di Ponte Nossa,Ponte Nossa",45.86569,9.88326,A,ADM3,IT,,09,BG,016168,,1800,,466,Europe/Rome,2020-06-07,Ponte Nossa
6536149,Gorno,Gorno,"016116,Comune di Gorno,Gorno",45.86249,9.84155,A,ADM3,IT,,09,BG,016116,,1554,,683,Europe/Rome,2020-06-07,Gorno
6536150,Monasterolo del Castello,Monasterolo del Castello,"016137,Comune di Monasterolo del Castello,Monasterolo del Castello",45.76319,9.93166,A,ADM3,IT,,09,BG,016137,,1148,,352,Europe/Rome,2020-06-07,Monasterolo del Castello
6536151,Oneta,Oneta,"016148,Aneta,Comune di Oneta,Oneda,Oneta,Onéda,ao nei ta,oneta,Анета,Онета,Օնետա,オネータ,奥内塔",45.87149,9.81935,A,ADM3,IT,,09,BG,016148,,588,,742,Europe/Rome,2020-06-07,Oneta
6536152,San Pellegrino Terme,San Pellegrino Terme,"016190,Comune di San Pellegrino Terme,San Pellegrino Terme",45.83838,9.66455,A,ADM3,IT,,09,BG,016190,,4806,,361,Europe/Rome,2020-06-07,San Pellegrino Terme
6536153,Seriate,Seriate,"016198,Comune di Seriate,Seriate",45.68338,9.72285,A,ADM3,IT,,09,BG,016198,,25385,,243,Europe/Rome,2020-06-07,Seriate
6536154,Serina,Serina,"016199,Comune di Serina,Serina,sai li na,serina,Серина,Սերինա,セリーナ,塞里纳",45.87159,9.73125,A,ADM3,IT,,09,BG,016199,,2066,,832,Europe/Rome,2020-06-07,Serina
6536155,Sovere,Sovere,"016204,Comune di Sovere,Sovere",45.81429,10.02846,A,ADM3,IT,,09,BG,016204,,5324,,348,Europe/Rome,2020-06-07,Sovere
6536156,Telgate,Telgate,"016212,Comune di Telgate,Telgate",45.62888,9.85166,A,ADM3,IT,,09,BG,016212,,5068,,194,Europe/Rome,2020-06-07,Telgate
6536157,Santa Brigida,Santa Brigida,"016191,Comune di Santa Brigida,Fanum Sanctae Brigitae,Santa Brigida,Santa Brijida,Santa Brìgida,Santa-Bridzhida,sheng bu li ji da,Санта-Бриджида,Սանտա Բրիջիդա,サンタ・ブリージダ,圣布里吉达",45.98489,9.62115,A,ADM3,IT,,09,BG,016191,,542,,785,Europe/Rome,2020-06-07,Santa Brigida
6536158,Valbondione,Valbondione,"016223,Comune di Valbondione,Valbondione",46.03419,10.00586,A,ADM3,IT,,09,BG,016223,,1032,,879,Europe/Rome,2020-06-07,Valbondione
6536159,Torre Boldone,Torre Boldone,"016214,Comune di Torre Boldone,Torre Boldone",45.71418,9.71015,A,ADM3,IT,,09,BG,016214,,8777,,278,Europe/Rome,2020-06-07,Torre Boldone
6536160,Treviglio,Treviglio,"016219,Comune di Treviglio,Treviglio",45.52378,9.58945,A,ADM3,IT,,09,BG,016219,,30092,,127,Europe/Rome,2020-06-07,Treviglio
6536161,Valnegra,Valnegra,"016227,Comune di Valnegra,Valnegra",45.94909,9.68935,A,ADM3,IT,,09,BG,016227,,212,,578,Europe/Rome,2020-06-07,Valnegra
6536162,Valtorta,Valtorta,"016229,Altorta,Altòrta,Comune di Valtorta,Val'torta,Vallis Torta,Valtorta,faltwrta,vuarutoruta,wa er tuo er ta,Вальторта,Վալտորտա,فالتورتا,ヴァルトルタ,瓦尔托尔塔",45.97779,9.53495,A,ADM3,IT,,09,BG,016229,,267,,939,Europe/Rome,2020-06-07,Valtorta
6536163,Villa d'Almè,Villa d'Alme,"016239,Comune di Villa d'Alme,Comune di Villa d'Almè,Villa d'Alme,Villa d'Almè",45.74968,9.61445,A,ADM3,IT,,09,BG,016239,,6667,,299,Europe/Rome,2020-06-07,Villa d'Almè
6536164,Villa di Serio,Villa di Serio,"016240,Comune di Villa di Serio,Villa di Serio",45.72418,9.73615,A,ADM3,IT,,09,BG,016240,,6780,,276,Europe/Rome,2020-06-07,Villa di Serio
6536165,Zanica,Zanica,"016245,Comune di Zanica,Zanica",45.64088,9.68566,A,ADM3,IT,,09,BG,016245,,8739,,210,Europe/Rome,2020-06-07,Zanica
6536166,Barghe,Barghe,"017012,Barghe,Comune di Barghe",45.68189,10.41217,A,ADM3,IT,,09,BS,017012,,1176,,335,Europe/Rome,2020-06-07,Barghe
6536167,Berlingo,Berlingo,"017015,Berlingo,Comune di Berlingo",45.50298,10.04367,A,ADM3,IT,,09,BS,017015,,2782,,118,Europe/Rome,2020-06-07,Berlingo
6536168,Gavardo,Gavardo,"017077,Comune di Gavardo,Gavardo",45.58939,10.44257,A,ADM3,IT,,09,BS,017077,,12280,,204,Europe/Rome,2020-06-07,Gavardo
6536169,Gussago,Gussago,"017081,Comune di Gussago,Gussago",45.58358,10.15717,A,ADM3,IT,,09,BS,017081,,16739,,157,Europe/Rome,2020-06-07,Gussago
6536170,Montebello della Battaglia,Montebello della Battaglia,"018095,Comune di Montebello della Battaglia,Montebello della Battaglia",45.00096,9.10345,A,ADM3,IT,,09,PV,018095,,1563,,119,Europe/Rome,2020-06-07,Montebello della Battaglia
6536171,Ceto,Ceto,"017050,Ceto,Cetum,Cheto,Comune di Ceto,Het,Hét,cheto,qie tuo,Чето,Չետո,チェート,切托",46.00259,10.35196,A,ADM3,IT,,09,BS,017050,,1864,,458,Europe/Rome,2020-06-07,Ceto
6536172,Chiari,Chiari,"017052,Chiari,Ciare,Ciàre,Clarium,Comune di Chiari,K'jari,Kiari,Kjari,Kjary,ji ya li,kiari,Киари,Кьяри,Кяры,Кярі,Кјари,Կիարի,キアーリ,基亚里",45.53588,9.93036,A,ADM3,IT,,09,BS,017052,,19094,,150,Europe/Rome,2020-06-07,Chiari
6536173,Cividate Camuno,Cividate Camuno,"017055,Cividate Camuno,Comune di Cividate Camuno",45.94249,10.27746,A,ADM3,IT,,09,BS,017055,,2742,,273,Europe/Rome,2020-06-07,Cividate Camuno
6536174,Coccaglio,Coccaglio,"017056,Coccaglio,Comune di Coccaglio",45.56458,9.97426,A,ADM3,IT,,09,BS,017056,,8664,,159,Europe/Rome,2020-06-07,Coccaglio
6536175,Cologne,Cologne,"017059,Cologne,Colonium,Cològne,Comune di Cologne,Kolon'e,Kolone,Kolonie,ke luo nie,koronye,Колоние,Колонье,Колоньє,Колоње,Կոլոնե,コローニェ,科洛涅",45.58138,9.94136,A,ADM3,IT,,09,BS,017059,,7564,,179,Europe/Rome,2020-06-07,Cologne
6536176,Desenzano del Garda,Desenzano del Garda,"017067,Comune di Desenzano del Garda,Desenzano del Garda",45.46798,10.53398,A,ADM3,IT,,09,BS,017067,,29158,,92,Europe/Rome,2020-06-07,Desenzano del Garda
6536177,Flero,Flero,"017072,Comune di Flero,Flero",45.48258,10.17347,A,ADM3,IT,,09,BS,017072,,8921,,102,Europe/Rome,2020-06-07,Flero
6536178,Gargnano,Gargnano,"017076,Comune di Gargnano,Gargna,Gargnan,Gargnano,Gargnanum,Gargnà,Garn'jano,Garnjano,Garnyano,garunyano,jia er ni ya nuo,Гарньяно,Гарняно,Գարնյանո,ガルニャーノ,加尔尼亚诺",45.68909,10.66088,A,ADM3,IT,,09,BS,017076,,2823,,117,Europe/Rome,2020-06-07,Gargnano
6536179,Ghedi,Ghedi,"017078,Comune di Ghedi,Ghedi",45.40108,10.27927,A,ADM3,IT,,09,BS,017078,,18669,,84,Europe/Rome,2020-06-07,Ghedi
6536180,Iseo,Iseo,"017085,Comune di Iseo,Iseo,Iseum,Ize,Izea,Izeo,Izé,izeo,yi sai ao,Ιζέο,Ізеа,Ізео,Изео,Իզեո,イゼーオ,伊塞奥",45.65678,10.05276,A,ADM3,IT,,09,BS,017085,,9168,,195,Europe/Rome,2020-06-07,Iseo
6536181,San Genesio ed Uniti,San Genesio ed Uniti,"018135,Comune di San Genesio ed Uniti,San Genesio ed Uniti",45.23477,9.17855,A,ADM3,IT,,09,PV,018135,,3870,,84,Europe/Rome,2020-06-07,San Genesio ed Uniti
6536182,Santa Cristina e Bissone,Santa Cristina e Bissone,"018139,Comune di Santa Cristina e Bissone,Santa Cristina e Bissone",45.15756,9.39976,A,ADM3,IT,,09,PV,018139,,1949,,71,Europe/Rome,2020-06-07,Santa Cristina e Bissone
6536183,Lograto,Lograto,"017091,Comune di Lograto,Lograto",45.48428,10.05327,A,ADM3,IT,,09,BS,017091,,3794,,109,Europe/Rome,2020-06-07,Lograto
6536184,Magasa,Magasa,"017098,Comune di Magasa,Magasa,Magasia,Magaza,Magàza,ma jia sa,magaza,Магаза,Մագազա,マガーザ,马加萨",45.78139,10.61597,A,ADM3,IT,,09,BS,017098,,123,,1006,Europe/Rome,2020-06-07,Magasa
6536185,Manerbio,Manerbio,"017103,Comune di Manerbio,Manerbio",45.35578,10.13517,A,ADM3,IT,,09,BS,017103,,13161,,67,Europe/Rome,2020-06-07,Manerbio
6536186,Marcheno,Marcheno,"017104,Comune di Marcheno,Marcheno",45.70429,10.21246,A,ADM3,IT,,09,BS,017104,,4289,,362,Europe/Rome,2020-06-07,Marcheno
6536187,Orzinuovi,Orzinuovi,"017125,Comune di Orzinuovi,Orzinuovi",45.40398,9.92156,A,ADM3,IT,,09,BS,017125,,12520,,84,Europe/Rome,2020-06-07,Orzinuovi
6536188,Casalbuttano ed Uniti,Casalbuttano ed Uniti,"019016,Casalbuttano ed Uniti,Comune di Casalbuttano ed Uniti",45.25187,9.96167,A,ADM3,IT,,09,CR,019016,,3810,,64,Europe/Rome,2020-06-07,Casalbuttano ed Uniti
6536189,Pompiano,Pompiano,"017146,Comune di Pompiano,Pompiano",45.43198,9.98926,A,ADM3,IT,,09,BS,017146,,3760,,92,Europe/Rome,2020-06-07,Pompiano
